[
  {
    "taxid":"2157",
    "sci_name":"Archaea",
    "common_name":"",
    "rank":"superkingdom",
    "zoom":"6",
    "nbdesc":"3733",
    "all":"Archaea |  | superkingdom | 2157",
    "coordinates": [-0.33974599999999988142,6.00000000000000000000],
    "lat": "-0.33974599999999988142",
    "lon": "6.00000000000000000000"
  },
  {
    "taxid":"28890",
    "sci_name":"Euryarchaeota",
    "common_name":"",
    "rank":"phylum",
    "zoom":"7",
    "nbdesc":"3470",
    "all":"Euryarchaeota |  | phylum | 28890",
    "coordinates": [0.00588231686677931354,9.00430875026724564236],
    "lat": "0.00588231686677931354",
    "lon": "9.00430875026724564236"
  },
  {
    "taxid":"1783275",
    "sci_name":"TACK group",
    "common_name":"",
    "rank":"no rank",
    "zoom":"8",
    "nbdesc":"233",
    "all":"TACK group |  | no rank | 1783275",
    "coordinates": [7.29091805031365591816,5.95024233812807068489],
    "lat": "7.29091805031365591816",
    "lon": "5.95024233812807068489"
  },
  {
    "taxid":"1783276",
    "sci_name":"DPANN group",
    "common_name":"",
    "rank":"no rank",
    "zoom":"9",
    "nbdesc":"30",
    "all":"DPANN group |  | no rank | 1783276",
    "coordinates": [7.91402571807350163624,2.35777538276086495728],
    "lat": "7.91402571807350163624",
    "lon": "2.35777538276086495728"
  },
  {
    "taxid":"183963",
    "sci_name":"Halobacteria",
    "common_name":"",
    "rank":"class",
    "zoom":"8",
    "nbdesc":"2505",
    "all":"Halobacteria |  | class | 183963",
    "coordinates": [-2.82634114469089725574,11.74960694738888555833],
    "lat": "-2.82634114469089725574",
    "lon": "11.74960694738888555833"
  },
  {
    "taxid":"183925",
    "sci_name":"Methanobacteria",
    "common_name":"",
    "rank":"class",
    "zoom":"9",
    "nbdesc":"178",
    "all":"Methanobacteria |  | class | 183925",
    "coordinates": [0.17761346930241556086,14.93130457400929955725],
    "lat": "0.17761346930241556086",
    "lon": "14.93130457400929955725"
  },
  {
    "taxid":"224756",
    "sci_name":"Methanomicrobia",
    "common_name":"",
    "rank":"class",
    "zoom":"9",
    "nbdesc":"258",
    "all":"Methanomicrobia |  | class | 224756",
    "coordinates": [2.31813570110505295929,14.26758576975005965437],
    "lat": "2.31813570110505295929",
    "lon": "14.26758576975005965437"
  },
  {
    "taxid":"183968",
    "sci_name":"Thermococci",
    "common_name":"",
    "rank":"class",
    "zoom":"9",
    "nbdesc":"419",
    "all":"Thermococci |  | class | 183968",
    "coordinates": [4.26644278872563820215,12.43960353288637321612],
    "lat": "4.26644278872563820215",
    "lon": "12.43960353288637321612"
  },
  {
    "taxid":"183939",
    "sci_name":"Methanococci",
    "common_name":"",
    "rank":"class",
    "zoom":"10",
    "nbdesc":"51",
    "all":"Methanococci |  | class | 183939",
    "coordinates": [6.06576694606502098139,10.99286025861522197999],
    "lat": "6.06576694606502098139",
    "lon": "10.99286025861522197999"
  },
  {
    "taxid":"183967",
    "sci_name":"Thermoplasmata",
    "common_name":"",
    "rank":"class",
    "zoom":"10",
    "nbdesc":"35",
    "all":"Thermoplasmata |  | class | 183967",
    "coordinates": [6.41035740918442620284,9.94687691459827227902],
    "lat": "6.41035740918442620284",
    "lon": "9.94687691459827227902"
  },
  {
    "taxid":"183980",
    "sci_name":"Archaeoglobi",
    "common_name":"",
    "rank":"class",
    "zoom":"11",
    "nbdesc":"21",
    "all":"Archaeoglobi |  | class | 183980",
    "coordinates": [6.58622120554701595552,9.06137403950310371670],
    "lat": "6.58622120554701595552",
    "lon": "9.06137403950310371670"
  },
  {
    "taxid":"183988",
    "sci_name":"Methanopyri",
    "common_name":"",
    "rank":"class",
    "zoom":"12",
    "nbdesc":"2",
    "all":"Methanopyri |  | class | 183988",
    "coordinates": [6.83823307960935267147,8.52635703251099208444],
    "lat": "6.83823307960935267147",
    "lon": "8.52635703251099208444"
  },
  {
    "taxid":"1775750",
    "sci_name":"Hadesarchaea",
    "common_name":"",
    "rank":"class",
    "zoom":"13",
    "nbdesc":"1",
    "all":"Hadesarchaea |  | class | 1775750",
    "coordinates": [6.85619928906317532835,8.30696202782995385405],
    "lat": "6.85619928906317532835",
    "lon": "8.30696202782995385405"
  },
  {
    "taxid":"651137",
    "sci_name":"Thaumarchaeota",
    "common_name":"",
    "rank":"phylum",
    "zoom":"10",
    "nbdesc":"29",
    "all":"Thaumarchaeota |  | phylum | 651137",
    "coordinates": [7.95187547692408713829,7.47472953242759885484],
    "lat": "7.95187547692408713829",
    "lon": "7.47472953242759885484"
  },
  {
    "taxid":"28889",
    "sci_name":"Crenarchaeota",
    "common_name":"",
    "rank":"phylum",
    "zoom":"9",
    "nbdesc":"202",
    "all":"Crenarchaeota |  | phylum | 28889",
    "coordinates": [8.09988073813130071699,5.69700461766882515491],
    "lat": "8.09988073813130071699",
    "lon": "5.69700461766882515491"
  },
  {
    "taxid":"51967",
    "sci_name":"Candidatus Korarchaeota",
    "common_name":"",
    "rank":"phylum",
    "zoom":"12",
    "nbdesc":"2",
    "all":"Candidatus Korarchaeota |  | phylum | 51967",
    "coordinates": [7.50304783401524133524,3.81889111166433048439],
    "lat": "7.50304783401524133524",
    "lon": "3.81889111166433048439"
  },
  {
    "taxid":"1801616",
    "sci_name":"Candidatus Woesearchaeota",
    "common_name":"",
    "rank":"phylum",
    "zoom":"12",
    "nbdesc":"4",
    "all":"Candidatus Woesearchaeota |  | phylum | 1801616",
    "coordinates": [8.38834448764448481484,3.00257812600967888272],
    "lat": "8.38834448764448481484",
    "lon": "3.00257812600967888272"
  },
  {
    "taxid":"1462430",
    "sci_name":"Candidatus Nanohaloarchaeota",
    "common_name":"",
    "rank":"phylum",
    "zoom":"12",
    "nbdesc":"3",
    "all":"Candidatus Nanohaloarchaeota |  | phylum | 1462430",
    "coordinates": [8.62297022662826684325,2.77180431261093840334],
    "lat": "8.62297022662826684325",
    "lon": "2.77180431261093840334"
  },
  {
    "taxid":"1801631",
    "sci_name":"Candidatus Micrarchaeota",
    "common_name":"",
    "rank":"phylum",
    "zoom":"12",
    "nbdesc":"2",
    "all":"Candidatus Micrarchaeota |  | phylum | 1801631",
    "coordinates": [8.74605785685274561558,2.51315528470779447900],
    "lat": "8.74605785685274561558",
    "lon": "2.51315528470779447900"
  },
  {
    "taxid":"192989",
    "sci_name":"Nanoarchaeota",
    "common_name":"",
    "rank":"phylum",
    "zoom":"12",
    "nbdesc":"7",
    "all":"Nanoarchaeota |  | phylum | 192989",
    "coordinates": [8.64279706395875990665,2.16451249170467052707],
    "lat": "8.64279706395875990665",
    "lon": "2.16451249170467052707"
  },
  {
    "taxid":"743724",
    "sci_name":"Candidatus Aenigmarchaeota",
    "common_name":"",
    "rank":"phylum",
    "zoom":"13",
    "nbdesc":"1",
    "all":"Candidatus Aenigmarchaeota |  | phylum | 743724",
    "coordinates": [8.61165345606897147945,1.81881514671670929673],
    "lat": "8.61165345606897147945",
    "lon": "1.81881514671670929673"
  },
  {
    "taxid":"1462422",
    "sci_name":"Candidatus Parvarchaeota",
    "common_name":"",
    "rank":"phylum",
    "zoom":"12",
    "nbdesc":"2",
    "all":"Candidatus Parvarchaeota |  | phylum | 1462422",
    "coordinates": [8.42564823850567989894,1.68348850725665855066],
    "lat": "8.42564823850567989894",
    "lon": "1.68348850725665855066"
  },
  {
    "taxid":"1801617",
    "sci_name":"Candidatus Pacearchaeota",
    "common_name":"",
    "rank":"no rank",
    "zoom":"11",
    "nbdesc":"10",
    "all":"Candidatus Pacearchaeota |  | no rank | 1801617",
    "coordinates": [8.02063895032808460428,1.64645154757441192217],
    "lat": "8.02063895032808460428",
    "lon": "1.64645154757441192217"
  },
  {
    "taxid":"743725",
    "sci_name":"Candidatus Diapherotrites",
    "common_name":"",
    "rank":"phylum",
    "zoom":"13",
    "nbdesc":"1",
    "all":"Candidatus Diapherotrites |  | phylum | 743725",
    "coordinates": [7.64824033566088790081,1.51722750943464612661],
    "lat": "7.64824033566088790081",
    "lon": "1.51722750943464612661"
  },
  {
    "taxid":"1644055",
    "sci_name":"Haloferacales",
    "common_name":"",
    "rank":"order",
    "zoom":"9",
    "nbdesc":"1219",
    "all":"Haloferacales |  | order | 1644055",
    "coordinates": [-4.53493598531438557586,11.48142415591705756128],
    "lat": "-4.53493598531438557586",
    "lon": "11.48142415591705756128"
  },
  {
    "taxid":"2235",
    "sci_name":"Halobacteriales",
    "common_name":"",
    "rank":"order",
    "zoom":"9",
    "nbdesc":"844",
    "all":"Halobacteriales |  | order | 2235",
    "coordinates": [-3.81027964571337385280,13.37533110789940948848],
    "lat": "-3.81027964571337385280",
    "lon": "13.37533110789940948848"
  },
  {
    "taxid":"1644060",
    "sci_name":"Natrialbales",
    "common_name":"",
    "rank":"order",
    "zoom":"10",
    "nbdesc":"442",
    "all":"Natrialbales |  | order | 1644060",
    "coordinates": [-2.02602003348801673610,13.74611244538519017055],
    "lat": "-2.02602003348801673610",
    "lon": "13.74611244538519017055"
  },
  {
    "taxid":"2158",
    "sci_name":"Methanobacteriales",
    "common_name":"",
    "rank":"order",
    "zoom":"10",
    "nbdesc":"178",
    "all":"Methanobacteriales |  | order | 2158",
    "coordinates": [0.18367464258775703656,15.14049520855453856427],
    "lat": "0.18367464258775703656",
    "lon": "15.14049520855453856427"
  },
  {
    "taxid":"2191",
    "sci_name":"Methanomicrobiales",
    "common_name":"",
    "rank":"order",
    "zoom":"10",
    "nbdesc":"129",
    "all":"Methanomicrobiales |  | order | 2191",
    "coordinates": [2.05318641814081459529,14.85594529655631212961],
    "lat": "2.05318641814081459529",
    "lon": "14.85594529655631212961"
  },
  {
    "taxid":"94695",
    "sci_name":"Methanosarcinales",
    "common_name":"",
    "rank":"order",
    "zoom":"10",
    "nbdesc":"126",
    "all":"Methanosarcinales |  | order | 94695",
    "coordinates": [2.87777516639917774199,14.59926815044624426321],
    "lat": "2.87777516639917774199",
    "lon": "14.59926815044624426321"
  },
  {
    "taxid":"570264",
    "sci_name":"Methanocellales",
    "common_name":"",
    "rank":"order",
    "zoom":"12",
    "nbdesc":"3",
    "all":"Methanocellales |  | order | 570264",
    "coordinates": [3.37133029082776092267,13.93943783902596145197],
    "lat": "3.37133029082776092267",
    "lon": "13.93943783902596145197"
  },
  {
    "taxid":"2258",
    "sci_name":"Thermococcales",
    "common_name":"",
    "rank":"order",
    "zoom":"9",
    "nbdesc":"419",
    "all":"Thermococcales |  | order | 2258",
    "coordinates": [4.50043301160908448821,12.62827011728640336230],
    "lat": "4.50043301160908448821",
    "lon": "12.62827011728640336230"
  },
  {
    "taxid":"2182",
    "sci_name":"Methanococcales",
    "common_name":"",
    "rank":"order",
    "zoom":"10",
    "nbdesc":"51",
    "all":"Methanococcales |  | order | 2182",
    "coordinates": [6.17941618204659359748,11.03015426229061013430],
    "lat": "6.17941618204659359748",
    "lon": "11.03015426229061013430"
  },
  {
    "taxid":"1235850",
    "sci_name":"Methanomassiliicoccales",
    "common_name":"",
    "rank":"order",
    "zoom":"12",
    "nbdesc":"11",
    "all":"Methanomassiliicoccales |  | order | 1235850",
    "coordinates": [6.54609246359344432165,10.20258222581013995978],
    "lat": "6.54609246359344432165",
    "lon": "10.20258222581013995978"
  },
  {
    "taxid":"2301",
    "sci_name":"Thermoplasmatales",
    "common_name":"",
    "rank":"order",
    "zoom":"11",
    "nbdesc":"24",
    "all":"Thermoplasmatales |  | order | 2301",
    "coordinates": [6.59841737115822279947,9.84704977745476206508],
    "lat": "6.59841737115822279947",
    "lon": "9.84704977745476206508"
  },
  {
    "taxid":"2231",
    "sci_name":"Archaeoglobales",
    "common_name":"",
    "rank":"order",
    "zoom":"11",
    "nbdesc":"21",
    "all":"Archaeoglobales |  | order | 2231",
    "coordinates": [6.66527603524151679437,9.06205961007907667693],
    "lat": "6.66527603524151679437",
    "lon": "9.06205961007907667693"
  },
  {
    "taxid":"68985",
    "sci_name":"Methanopyrales",
    "common_name":"",
    "rank":"order",
    "zoom":"13",
    "nbdesc":"2",
    "all":"Methanopyrales |  | order | 68985",
    "coordinates": [6.86353676312398253145,8.52458693325506366989],
    "lat": "6.86353676312398253145",
    "lon": "8.52458693325506366989"
  },
  {
    "taxid":"31932",
    "sci_name":"Nitrosopumilales",
    "common_name":"",
    "rank":"order",
    "zoom":"11",
    "nbdesc":"20",
    "all":"Nitrosopumilales |  | order | 31932",
    "coordinates": [7.84882763181296905231,7.79055351684794761269],
    "lat": "7.84882763181296905231",
    "lon": "7.79055351684794761269"
  },
  {
    "taxid":"1643678",
    "sci_name":"Nitrososphaeria",
    "common_name":"",
    "rank":"class",
    "zoom":"11",
    "nbdesc":"8",
    "all":"Nitrososphaeria |  | class | 1643678",
    "coordinates": [8.34068696743483428691,7.68948222380344681426],
    "lat": "8.34068696743483428691",
    "lon": "7.68948222380344681426"
  },
  {
    "taxid":"205948",
    "sci_name":"Cenarchaeales",
    "common_name":"",
    "rank":"order",
    "zoom":"13",
    "nbdesc":"1",
    "all":"Cenarchaeales |  | order | 205948",
    "coordinates": [8.53141343332870683014,7.34521918539495466405],
    "lat": "8.53141343332870683014",
    "lon": "7.34521918539495466405"
  },
  {
    "taxid":"183924",
    "sci_name":"Thermoprotei",
    "common_name":"",
    "rank":"class",
    "zoom":"9",
    "nbdesc":"202",
    "all":"Thermoprotei |  | class | 183924",
    "coordinates": [8.39028439681245430393,5.60609664175731037261],
    "lat": "8.39028439681245430393",
    "lon": "5.60609664175731037261"
  },
  {
    "taxid":"132564",
    "sci_name":"korarchaeote SRI-306",
    "common_name":"",
    "rank":"species",
    "zoom":"13",
    "nbdesc":"1",
    "all":"korarchaeote SRI-306 |  | species | 132564",
    "coordinates": [7.59097138470026067125,3.74688508171720968676],
    "lat": "7.59097138470026067125",
    "lon": "3.74688508171720968676"
  },
  {
    "taxid":"498845",
    "sci_name":"Candidatus Korarchaeum",
    "common_name":"",
    "rank":"genus",
    "zoom":"13",
    "nbdesc":"1",
    "all":"Candidatus Korarchaeum |  | genus | 498845",
    "coordinates": [7.43104180406812009352,3.73096756097931159246],
    "lat": "7.43104180406812009352",
    "lon": "3.73096756097931159246"
  },
  {
    "taxid":"1802470",
    "sci_name":"Candidatus Woesearchaeota archaeon RBG_13_36_6",
    "common_name":"",
    "rank":"species",
    "zoom":"14",
    "nbdesc":"1",
    "all":"Candidatus Woesearchaeota archaeon RBG_13_36_6 |  | species | 1802470",
    "coordinates": [8.32326583858468005417,3.11019806982587265765],
    "lat": "8.32326583858468005417",
    "lon": "3.11019806982587265765"
  },
  {
    "taxid":"1805422",
    "sci_name":"Candidatus Woesearchaeota archaeon CG1_02_33_12",
    "common_name":"",
    "rank":"species",
    "zoom":"14",
    "nbdesc":"1",
    "all":"Candidatus Woesearchaeota archaeon CG1_02_33_12 |  | species | 1805422",
    "coordinates": [8.41842572564718238937,3.12469447213367246263],
    "lat": "8.41842572564718238937",
    "lon": "3.12469447213367246263"
  },
  {
    "taxid":"1805423",
    "sci_name":"Candidatus Woesearchaeota archaeon CG1_02_47_18",
    "common_name":"",
    "rank":"species",
    "zoom":"14",
    "nbdesc":"1",
    "all":"Candidatus Woesearchaeota archaeon CG1_02_47_18 |  | species | 1805423",
    "coordinates": [8.49596443146067947794,3.06765677506948408748],
    "lat": "8.49596443146067947794",
    "lon": "3.06765677506948408748"
  },
  {
    "taxid":"1805424",
    "sci_name":"Candidatus Woesearchaeota archaeon CG1_02_57_44",
    "common_name":"",
    "rank":"species",
    "zoom":"14",
    "nbdesc":"1",
    "all":"Candidatus Woesearchaeota archaeon CG1_02_57_44 |  | species | 1805424",
    "coordinates": [8.51046083376847839475,2.97249688800698042002],
    "lat": "8.51046083376847839475",
    "lon": "2.97249688800698042002"
  },
  {
    "taxid":"1051663",
    "sci_name":"Nanohaloarchaea",
    "common_name":"",
    "rank":"class",
    "zoom":"12",
    "nbdesc":"3",
    "all":"Nanohaloarchaea |  | class | 1051663",
    "coordinates": [8.65014371327391629052,2.78767383337093255236],
    "lat": "8.65014371327391629052",
    "lon": "2.78767383337093255236"
  },
  {
    "taxid":"662756",
    "sci_name":"Candidatus Micrarchaeum",
    "common_name":"",
    "rank":"genus",
    "zoom":"13",
    "nbdesc":"2",
    "all":"Candidatus Micrarchaeum |  | genus | 662756",
    "coordinates": [8.77199206710903034434,2.51799843301767189985],
    "lat": "8.77199206710903034434",
    "lon": "2.51799843301767189985"
  },
  {
    "taxid":"193568",
    "sci_name":"Nanoarchaeum",
    "common_name":"",
    "rank":"genus",
    "zoom":"12",
    "nbdesc":"7",
    "all":"Nanoarchaeum |  | genus | 193568",
    "coordinates": [8.68617127538800026798,2.15301008351391631734],
    "lat": "8.68617127538800026798",
    "lon": "2.15301008351391631734"
  },
  {
    "taxid":"1462427",
    "sci_name":"Candidatus Aenigmarchaeum",
    "common_name":"",
    "rank":"genus",
    "zoom":"14",
    "nbdesc":"1",
    "all":"Candidatus Aenigmarchaeum |  | genus | 1462427",
    "coordinates": [8.64993918803378036841,1.78923706945136640201],
    "lat": "8.64993918803378036841",
    "lon": "1.78923706945136640201"
  },
  {
    "taxid":"662758",
    "sci_name":"Candidatus Parvarchaeum",
    "common_name":"",
    "rank":"genus",
    "zoom":"13",
    "nbdesc":"2",
    "all":"Candidatus Parvarchaeum |  | genus | 662758",
    "coordinates": [8.44159537011072380608,1.66247117296469704151],
    "lat": "8.44159537011072380608",
    "lon": "1.66247117296469704151"
  },
  {
    "taxid":"1805293",
    "sci_name":"Candidatus Pacearchaeota archaeon CG1_02_30_18",
    "common_name":"",
    "rank":"species",
    "zoom":"14",
    "nbdesc":"1",
    "all":"Candidatus Pacearchaeota archaeon CG1_02_30_18 |  | species | 1805293",
    "coordinates": [8.24427023147704751693,1.64459379424903340272],
    "lat": "8.24427023147704751693",
    "lon": "1.64459379424903340272"
  },
  {
    "taxid":"1805294",
    "sci_name":"Candidatus Pacearchaeota archaeon CG1_02_31_27",
    "common_name":"",
    "rank":"species",
    "zoom":"14",
    "nbdesc":"1",
    "all":"Candidatus Pacearchaeota archaeon CG1_02_31_27 |  | species | 1805294",
    "coordinates": [8.23275086016334078920,1.57557885281977050340],
    "lat": "8.23275086016334078920",
    "lon": "1.57557885281977050340"
  },
  {
    "taxid":"1805295",
    "sci_name":"Candidatus Pacearchaeota archaeon CG1_02_32_132",
    "common_name":"",
    "rank":"species",
    "zoom":"14",
    "nbdesc":"1",
    "all":"Candidatus Pacearchaeota archaeon CG1_02_32_132 |  | species | 1805295",
    "coordinates": [8.20046849724438331464,1.51350142455219205395],
    "lat": "8.20046849724438331464",
    "lon": "1.51350142455219205395"
  },
  {
    "taxid":"1805296",
    "sci_name":"Candidatus Pacearchaeota archaeon CG1_02_32_21",
    "common_name":"",
    "rank":"species",
    "zoom":"14",
    "nbdesc":"1",
    "all":"Candidatus Pacearchaeota archaeon CG1_02_32_21 |  | species | 1805296",
    "coordinates": [8.15058316532712900937,1.46443808064400449176],
    "lat": "8.15058316532712900937",
    "lon": "1.46443808064400449176"
  },
  {
    "taxid":"1805297",
    "sci_name":"Candidatus Pacearchaeota archaeon CG1_02_35_32",
    "common_name":"",
    "rank":"species",
    "zoom":"14",
    "nbdesc":"1",
    "all":"Candidatus Pacearchaeota archaeon CG1_02_35_32 |  | species | 1805297",
    "coordinates": [8.08797798827118619158,1.43319148304135879357],
    "lat": "8.08797798827118619158",
    "lon": "1.43319148304135879357"
  },
  {
    "taxid":"1805298",
    "sci_name":"Candidatus Pacearchaeota archaeon CG1_02_39_14",
    "common_name":"",
    "rank":"species",
    "zoom":"14",
    "nbdesc":"1",
    "all":"Candidatus Pacearchaeota archaeon CG1_02_39_14 |  | species | 1805298",
    "coordinates": [8.01878119700270630688,1.42282026642544923156],
    "lat": "8.01878119700270630688",
    "lon": "1.42282026642544923156"
  },
  {
    "taxid":"1801881",
    "sci_name":"Candidatus Pacearchaeota archaeon RBG_13_36_9",
    "common_name":"",
    "rank":"species",
    "zoom":"14",
    "nbdesc":"1",
    "all":"Candidatus Pacearchaeota archaeon RBG_13_36_9 |  | species | 1801881",
    "coordinates": [7.94976625557344274142,1.43433963773915595930],
    "lat": "7.94976625557344274142",
    "lon": "1.43433963773915595930"
  },
  {
    "taxid":"1801880",
    "sci_name":"Candidatus Pacearchaeota archaeon RBG_13_33_26",
    "common_name":"",
    "rank":"species",
    "zoom":"14",
    "nbdesc":"1",
    "all":"Candidatus Pacearchaeota archaeon RBG_13_33_26 |  | species | 1801880",
    "coordinates": [7.88768882730586451402,1.46662200065811409999],
    "lat": "7.88768882730586451402",
    "lon": "1.46662200065811409999"
  },
  {
    "taxid":"1801882",
    "sci_name":"Candidatus Pacearchaeota archaeon RBG_16_35_8",
    "common_name":"",
    "rank":"species",
    "zoom":"14",
    "nbdesc":"1",
    "all":"Candidatus Pacearchaeota archaeon RBG_16_35_8 |  | species | 1801882",
    "coordinates": [7.83862548339767695182,1.51650733257536773912],
    "lat": "7.83862548339767695182",
    "lon": "1.51650733257536773912"
  },
  {
    "taxid":"1801883",
    "sci_name":"Candidatus Pacearchaeota archaeon RBG_19FT_COMBO_34_9",
    "common_name":"",
    "rank":"species",
    "zoom":"14",
    "nbdesc":"1",
    "all":"Candidatus Pacearchaeota archaeon RBG_19FT_COMBO_34_9 |  | species | 1801883",
    "coordinates": [7.80737888579503191977,1.57911250963131077896],
    "lat": "7.80737888579503191977",
    "lon": "1.57911250963131077896"
  },
  {
    "taxid":"1462418",
    "sci_name":"Candidatus Iainarchaeum",
    "common_name":"",
    "rank":"genus",
    "zoom":"14",
    "nbdesc":"1",
    "all":"Candidatus Iainarchaeum |  | genus | 1462418",
    "coordinates": [7.63365406370379506740,1.47109833648314536347],
    "lat": "7.63365406370379506740",
    "lon": "1.47109833648314536347"
  },
  {
    "taxid":"1644056",
    "sci_name":"Haloferacaceae",
    "common_name":"",
    "rank":"family",
    "zoom":"9",
    "nbdesc":"1219",
    "all":"Haloferacaceae |  | family | 1644056",
    "coordinates": [-4.79218222993322839898,11.44104652259097854028],
    "lat": "-4.79218222993322839898",
    "lon": "11.44104652259097854028"
  },
  {
    "taxid":"2236",
    "sci_name":"Halobacteriaceae",
    "common_name":"",
    "rank":"family",
    "zoom":"10",
    "nbdesc":"844",
    "all":"Halobacteriaceae |  | family | 2236",
    "coordinates": [-3.92742274098157917450,13.56888218859866590549],
    "lat": "-3.92742274098157917450",
    "lon": "13.56888218859866590549"
  },
  {
    "taxid":"1644061",
    "sci_name":"Natrialbaceae",
    "common_name":"",
    "rank":"family",
    "zoom":"10",
    "nbdesc":"442",
    "all":"Natrialbaceae |  | family | 1644061",
    "coordinates": [-1.96049298037252328619,13.90957823428078654615],
    "lat": "-1.96049298037252328619",
    "lon": "13.90957823428078654615"
  },
  {
    "taxid":"2159",
    "sci_name":"Methanobacteriaceae",
    "common_name":"",
    "rank":"family",
    "zoom":"10",
    "nbdesc":"175",
    "all":"Methanobacteriaceae |  | family | 2159",
    "coordinates": [0.16387273452134396012,15.26900283979184713701],
    "lat": "0.16387273452134396012",
    "lon": "15.26900283979184713701"
  },
  {
    "taxid":"2178",
    "sci_name":"Methanothermaceae",
    "common_name":"",
    "rank":"family",
    "zoom":"12",
    "nbdesc":"3",
    "all":"Methanothermaceae |  | family | 2178",
    "coordinates": [0.88251599668146751831,15.24818058189409342162],
    "lat": "0.88251599668146751831",
    "lon": "15.24818058189409342162"
  },
  {
    "taxid":"2194",
    "sci_name":"Methanomicrobiaceae",
    "common_name":"",
    "rank":"family",
    "zoom":"12",
    "nbdesc":"70",
    "all":"Methanomicrobiaceae |  | family | 2194",
    "coordinates": [1.70589330669058569789,14.91078757085752570788],
    "lat": "1.70589330669058569789",
    "lon": "14.91078757085752570788"
  },
  {
    "taxid":"1460864",
    "sci_name":"Methanocalculaceae",
    "common_name":"",
    "rank":"family",
    "zoom":"12",
    "nbdesc":"36",
    "all":"Methanocalculaceae |  | family | 1460864",
    "coordinates": [1.88908900258896461644,15.22470707978716220055],
    "lat": "1.88908900258896461644",
    "lon": "15.22470707978716220055"
  },
  {
    "taxid":"196137",
    "sci_name":"Methanospirillaceae",
    "common_name":"",
    "rank":"family",
    "zoom":"13",
    "nbdesc":"7",
    "all":"Methanospirillaceae |  | family | 196137",
    "coordinates": [2.14124917059705000000,15.33879790186919755968],
    "lat": "2.14124917059705000000",
    "lon": "15.33879790186919755968"
  },
  {
    "taxid":"1198451",
    "sci_name":"Methanoregulaceae",
    "common_name":"",
    "rank":"family",
    "zoom":"13",
    "nbdesc":"8",
    "all":"Methanoregulaceae |  | family | 1198451",
    "coordinates": [2.31092948120740482310,15.26731261698161823404],
    "lat": "2.31092948120740482310",
    "lon": "15.26731261698161823404"
  },
  {
    "taxid":"88404",
    "sci_name":"Methanocorpusculaceae",
    "common_name":"",
    "rank":"family",
    "zoom":"13",
    "nbdesc":"8",
    "all":"Methanocorpusculaceae |  | family | 88404",
    "coordinates": [2.44852959100976219631,15.13765141033227834555],
    "lat": "2.44852959100976219631",
    "lon": "15.13765141033227834555"
  },
  {
    "taxid":"143067",
    "sci_name":"Methanosaetaceae",
    "common_name":"",
    "rank":"family",
    "zoom":"12",
    "nbdesc":"12",
    "all":"Methanosaetaceae |  | family | 143067",
    "coordinates": [2.79109297256171551282,15.01932163641399498033],
    "lat": "2.79109297256171551282",
    "lon": "15.01932163641399498033"
  },
  {
    "taxid":"2206",
    "sci_name":"Methanosarcinaceae",
    "common_name":"",
    "rank":"family",
    "zoom":"11",
    "nbdesc":"111",
    "all":"Methanosarcinaceae |  | family | 2206",
    "coordinates": [3.07999885043339061141,14.69312583925328041801],
    "lat": "3.07999885043339061141",
    "lon": "14.69312583925328041801"
  },
  {
    "taxid":"660062",
    "sci_name":"Methermicoccaceae",
    "common_name":"",
    "rank":"family",
    "zoom":"14",
    "nbdesc":"1",
    "all":"Methermicoccaceae |  | family | 660062",
    "coordinates": [3.29029239526703198848,14.27284754012061007700],
    "lat": "3.29029239526703198848",
    "lon": "14.27284754012061007700"
  },
  {
    "taxid":"1392996",
    "sci_name":"Candidatus Methanoperedenaceae",
    "common_name":"",
    "rank":"family",
    "zoom":"13",
    "nbdesc":"2",
    "all":"Candidatus Methanoperedenaceae |  | family | 1392996",
    "coordinates": [3.19302825717938887351,14.20163663370211715176],
    "lat": "3.19302825717938887351",
    "lon": "14.20163663370211715176"
  },
  {
    "taxid":"570265",
    "sci_name":"Methanocellaceae",
    "common_name":"",
    "rank":"family",
    "zoom":"13",
    "nbdesc":"3",
    "all":"Methanocellaceae |  | family | 570265",
    "coordinates": [3.39499850752233278683,13.93206344078270930709],
    "lat": "3.39499850752233278683",
    "lon": "13.93206344078270930709"
  },
  {
    "taxid":"2259",
    "sci_name":"Thermococcaceae",
    "common_name":"",
    "rank":"family",
    "zoom":"9",
    "nbdesc":"419",
    "all":"Thermococcaceae |  | family | 2259",
    "coordinates": [4.68762518991584098416,12.77920338480642747925],
    "lat": "4.68762518991584098416",
    "lon": "12.77920338480642747925"
  },
  {
    "taxid":"2183",
    "sci_name":"Methanococcaceae",
    "common_name":"",
    "rank":"family",
    "zoom":"11",
    "nbdesc":"31",
    "all":"Methanococcaceae |  | family | 2183",
    "coordinates": [6.29446213089690687070,11.21611372455489075151],
    "lat": "6.29446213089690687070",
    "lon": "11.21611372455489075151"
  },
  {
    "taxid":"196117",
    "sci_name":"Methanocaldococcaceae",
    "common_name":"",
    "rank":"family",
    "zoom":"12",
    "nbdesc":"20",
    "all":"Methanocaldococcaceae |  | family | 196117",
    "coordinates": [6.40033412930351630621,10.89348084674741024003],
    "lat": "6.40033412930351630621",
    "lon": "10.89348084674741024003"
  },
  {
    "taxid":"1577788",
    "sci_name":"Methanomassiliicoccaceae",
    "common_name":"",
    "rank":"family",
    "zoom":"12",
    "nbdesc":"11",
    "all":"Methanomassiliicoccaceae |  | family | 1577788",
    "coordinates": [6.56605789102214654207,10.24019421820489839092],
    "lat": "6.56605789102214654207",
    "lon": "10.24019421820489839092"
  },
  {
    "taxid":"46630",
    "sci_name":"Picrophilaceae",
    "common_name":"",
    "rank":"family",
    "zoom":"13",
    "nbdesc":"2",
    "all":"Picrophilaceae |  | family | 46630",
    "coordinates": [6.75358476776287552923,10.01759747741033024226],
    "lat": "6.75358476776287552923",
    "lon": "10.01759747741033024226"
  },
  {
    "taxid":"46659",
    "sci_name":"Thermoplasmataceae",
    "common_name":"",
    "rank":"family",
    "zoom":"12",
    "nbdesc":"12",
    "all":"Thermoplasmataceae |  | family | 46659",
    "coordinates": [6.76830898648184930977,9.84186427978656475091],
    "lat": "6.76830898648184930977",
    "lon": "9.84186427978656475091"
  },
  {
    "taxid":"90142",
    "sci_name":"Ferroplasmaceae",
    "common_name":"",
    "rank":"family",
    "zoom":"13",
    "nbdesc":"9",
    "all":"Ferroplasmaceae |  | family | 90142",
    "coordinates": [6.66888834268688590612,9.67878780096931201626],
    "lat": "6.66888834268688590612",
    "lon": "9.67878780096931201626"
  },
  {
    "taxid":"1747776",
    "sci_name":"Cuniculiplasmataceae",
    "common_name":"",
    "rank":"family",
    "zoom":"14",
    "nbdesc":"1",
    "all":"Cuniculiplasmataceae |  | family | 1747776",
    "coordinates": [6.52324638233816767041,9.61324866137459643767],
    "lat": "6.52324638233816767041",
    "lon": "9.61324866137459643767"
  },
  {
    "taxid":"2232",
    "sci_name":"Archaeoglobaceae",
    "common_name":"",
    "rank":"family",
    "zoom":"11",
    "nbdesc":"21",
    "all":"Archaeoglobaceae |  | family | 2232",
    "coordinates": [6.72851989899711711018,9.06260806653985540038],
    "lat": "6.72851989899711711018",
    "lon": "9.06260806653985540038"
  },
  {
    "taxid":"183713",
    "sci_name":"Methanopyraceae",
    "common_name":"",
    "rank":"family",
    "zoom":"13",
    "nbdesc":"2",
    "all":"Methanopyraceae |  | family | 183713",
    "coordinates": [6.88377970993568677471,8.52317085385032058298],
    "lat": "6.88377970993568677471",
    "lon": "8.52317085385032058298"
  },
  {
    "taxid":"338190",
    "sci_name":"Nitrosopumilaceae",
    "common_name":"",
    "rank":"family",
    "zoom":"11",
    "nbdesc":"20",
    "all":"Nitrosopumilaceae |  | family | 338190",
    "coordinates": [7.82554114654447108279,7.86192260324380942649],
    "lat": "7.82554114654447108279",
    "lon": "7.86192260324380942649"
  },
  {
    "taxid":"1033996",
    "sci_name":"Nitrososphaerales",
    "common_name":"",
    "rank":"order",
    "zoom":"12",
    "nbdesc":"8",
    "all":"Nitrososphaerales |  | order | 1033996",
    "coordinates": [8.38679940545718238809,7.71495155897713935644],
    "lat": "8.38679940545718238809",
    "lon": "7.71495155897713935644"
  },
  {
    "taxid":"205957",
    "sci_name":"Cenarchaeaceae",
    "common_name":"",
    "rank":"family",
    "zoom":"14",
    "nbdesc":"1",
    "all":"Cenarchaeaceae |  | family | 205957",
    "coordinates": [8.58691333890984509480,7.33281652573710474030],
    "lat": "8.58691333890984509480",
    "lon": "7.33281652573710474030"
  },
  {
    "taxid":"2281",
    "sci_name":"Sulfolobales",
    "common_name":"",
    "rank":"order",
    "zoom":"11",
    "nbdesc":"95",
    "all":"Sulfolobales |  | order | 2281",
    "coordinates": [8.95889312983597108087,6.09793166818813414665],
    "lat": "8.95889312983597108087",
    "lon": "6.09793166818813414665"
  },
  {
    "taxid":"2266",
    "sci_name":"Thermoproteales",
    "common_name":"",
    "rank":"order",
    "zoom":"11",
    "nbdesc":"57",
    "all":"Thermoproteales |  | order | 2266",
    "coordinates": [9.19485437326809496028,5.38297490610372975084],
    "lat": "9.19485437326809496028",
    "lon": "5.38297490610372975084"
  },
  {
    "taxid":"114380",
    "sci_name":"Desulfurococcales",
    "common_name":"",
    "rank":"order",
    "zoom":"11",
    "nbdesc":"40",
    "all":"Desulfurococcales |  | order | 114380",
    "coordinates": [8.82307824136799645487,4.83462958629885886097],
    "lat": "8.82307824136799645487",
    "lon": "4.83462958629885886097"
  },
  {
    "taxid":"871006",
    "sci_name":"Acidilobales",
    "common_name":"",
    "rank":"order",
    "zoom":"12",
    "nbdesc":"9",
    "all":"Acidilobales |  | order | 871006",
    "coordinates": [8.37052591643779386743,4.56796813970069237598],
    "lat": "8.37052591643779386743",
    "lon": "4.56796813970069237598"
  },
  {
    "taxid":"685948",
    "sci_name":"Fervidicoccales",
    "common_name":"",
    "rank":"order",
    "zoom":"13",
    "nbdesc":"1",
    "all":"Fervidicoccales |  | order | 685948",
    "coordinates": [8.10926360742669949389,4.48927305450434044332],
    "lat": "8.10926360742669949389",
    "lon": "4.48927305450434044332"
  },
  {
    "taxid":"498846",
    "sci_name":"Candidatus Korarchaeum cryptofilum",
    "common_name":"",
    "rank":"species",
    "zoom":"14",
    "nbdesc":"1",
    "all":"Candidatus Korarchaeum cryptofilum |  | species | 498846",
    "coordinates": [7.39503878909455991675,3.68700578563680192445],
    "lat": "7.39503878909455991675",
    "lon": "3.68700578563680192445"
  },
  {
    "taxid":"1051666",
    "sci_name":"Candidatus Nanosalina",
    "common_name":"",
    "rank":"genus",
    "zoom":"14",
    "nbdesc":"1",
    "all":"Candidatus Nanosalina |  | genus | 1051666",
    "coordinates": [8.64974642725755238359,2.86747269793306580610],
    "lat": "8.64974642725755238359",
    "lon": "2.86747269793306580610"
  },
  {
    "taxid":"1051667",
    "sci_name":"Candidatus Nanosalinarum",
    "common_name":"",
    "rank":"genus",
    "zoom":"14",
    "nbdesc":"1",
    "all":"Candidatus Nanosalinarum |  | genus | 1051667",
    "coordinates": [8.71905291416969419060,2.82791732543473939288],
    "lat": "8.71905291416969419060",
    "lon": "2.82791732543473939288"
  },
  {
    "taxid":"1117720",
    "sci_name":"Candidatus Haloredivivus",
    "common_name":"",
    "rank":"no rank",
    "zoom":"14",
    "nbdesc":"1",
    "all":"Candidatus Haloredivivus |  | no rank | 1117720",
    "coordinates": [8.71945020018605987389,2.74811846087260613913],
    "lat": "8.71945020018605987389",
    "lon": "2.74811846087260613913"
  },
  {
    "taxid":"662757",
    "sci_name":"Candidatus Micrarchaeum acidiphilum",
    "common_name":"",
    "rank":"species",
    "zoom":"14",
    "nbdesc":"1",
    "all":"Candidatus Micrarchaeum acidiphilum |  | species | 662757",
    "coordinates": [8.80181933295848928367,2.56152419091595806577],
    "lat": "8.80181933295848928367",
    "lon": "2.56152419091595806577"
  },
  {
    "taxid":"1531428",
    "sci_name":"Candidatus Micrarchaeum sp. AZ1",
    "common_name":"",
    "rank":"species",
    "zoom":"14",
    "nbdesc":"1",
    "all":"Candidatus Micrarchaeum sp. AZ1 |  | species | 1531428",
    "coordinates": [8.81551782500731562209,2.48817116716821251643],
    "lat": "8.81551782500731562209",
    "lon": "2.48817116716821251643"
  },
  {
    "taxid":"1449038",
    "sci_name":"Nanoarchaeum sp. JGI 000156CP-E21",
    "common_name":"",
    "rank":"species",
    "zoom":"14",
    "nbdesc":"1",
    "all":"Nanoarchaeum sp. JGI 000156CP-E21 |  | species | 1449038",
    "coordinates": [8.75412421558070441563,2.28238900098828478846],
    "lat": "8.75412421558070441563",
    "lon": "2.28238900098828478846"
  },
  {
    "taxid":"1449039",
    "sci_name":"Nanoarchaeum sp. JGI 000156CP-F13",
    "common_name":"",
    "rank":"species",
    "zoom":"14",
    "nbdesc":"1",
    "all":"Nanoarchaeum sp. JGI 000156CP-F13 |  | species | 1449039",
    "coordinates": [8.80353016746082239763,2.24009278454639648714],
    "lat": "8.80353016746082239763",
    "lon": "2.24009278454639648714"
  },
  {
    "taxid":"1449040",
    "sci_name":"Nanoarchaeum sp. JGI 000156CP-I09",
    "common_name":"",
    "rank":"species",
    "zoom":"14",
    "nbdesc":"1",
    "all":"Nanoarchaeum sp. JGI 000156CP-I09 |  | species | 1449040",
    "coordinates": [8.82969175145356288681,2.18054877116578449403],
    "lat": "8.82969175145356288681",
    "lon": "2.18054877116578449403"
  },
  {
    "taxid":"1449041",
    "sci_name":"Nanoarchaeum sp. JGI 000156CP-L05",
    "common_name":"",
    "rank":"species",
    "zoom":"14",
    "nbdesc":"1",
    "all":"Nanoarchaeum sp. JGI 000156CP-L05 |  | species | 1449041",
    "coordinates": [8.82742734499838910267,2.11555038295588015984],
    "lat": "8.82742734499838910267",
    "lon": "2.11555038295588015984"
  },
  {
    "taxid":"1449042",
    "sci_name":"Nanoarchaeum sp. JGI 000158CP-H05",
    "common_name":"",
    "rank":"species",
    "zoom":"14",
    "nbdesc":"1",
    "all":"Nanoarchaeum sp. JGI 000158CP-H05 |  | species | 1449042",
    "coordinates": [8.79718544156487247676,2.05797134785457336292],
    "lat": "8.79718544156487247676",
    "lon": "2.05797134785457336292"
  },
  {
    "taxid":"1449043",
    "sci_name":"Nanoarchaeum sp. JGI 000158CP-J13",
    "common_name":"",
    "rank":"species",
    "zoom":"14",
    "nbdesc":"1",
    "all":"Nanoarchaeum sp. JGI 000158CP-J13 |  | species | 1449043",
    "coordinates": [8.74495582102062662955,2.01921589992420136284],
    "lat": "8.74495582102062662955",
    "lon": "2.01921589992420136284"
  },
  {
    "taxid":"160232",
    "sci_name":"Nanoarchaeum equitans",
    "common_name":"",
    "rank":"species",
    "zoom":"14",
    "nbdesc":"1",
    "all":"Nanoarchaeum equitans |  | species | 160232",
    "coordinates": [8.68108320026870039499,2.00696003093175168175],
    "lat": "8.68108320026870039499",
    "lon": "2.00696003093175168175"
  },
  {
    "taxid":"1462428",
    "sci_name":"Candidatus Aenigmarchaeum subterraneum",
    "common_name":"",
    "rank":"species",
    "zoom":"15",
    "nbdesc":"1",
    "all":"Candidatus Aenigmarchaeum subterraneum |  | species | 1462428",
    "coordinates": [8.66908205401618481289,1.77444803081869495465],
    "lat": "8.66908205401618481289",
    "lon": "1.77444803081869495465"
  },
  {
    "taxid":"662759",
    "sci_name":"Candidatus Parvarchaeum acidiphilum",
    "common_name":"",
    "rank":"species",
    "zoom":"14",
    "nbdesc":"1",
    "all":"Candidatus Parvarchaeum acidiphilum |  | species | 662759",
    "coordinates": [8.49387101910814656947,1.65530082356087682172],
    "lat": "8.49387101910814656947",
    "lon": "1.65530082356087682172"
  },
  {
    "taxid":"662761",
    "sci_name":"Candidatus Parvarchaeum acidophilus",
    "common_name":"",
    "rank":"species",
    "zoom":"14",
    "nbdesc":"1",
    "all":"Candidatus Parvarchaeum acidophilus |  | species | 662761",
    "coordinates": [8.43442502070690380833,1.61019552396727494425],
    "lat": "8.43442502070690380833",
    "lon": "1.61019552396727494425"
  },
  {
    "taxid":"1462419",
    "sci_name":"Candidatus Iainarchaeum andersonii",
    "common_name":"",
    "rank":"species",
    "zoom":"15",
    "nbdesc":"1",
    "all":"Candidatus Iainarchaeum andersonii |  | species | 1462419",
    "coordinates": [7.62636092772524865069,1.44803375000739498191],
    "lat": "7.62636092772524865069",
    "lon": "1.44803375000739498191"
  },
  {
    "taxid":"56688",
    "sci_name":"Halorubrum",
    "common_name":"",
    "rank":"genus",
    "zoom":"11",
    "nbdesc":"803",
    "all":"Halorubrum |  | genus | 56688",
    "coordinates": [-5.03441687683474903281,10.83368081483786582453],
    "lat": "-5.03441687683474903281",
    "lon": "10.83368081483786582453"
  },
  {
    "taxid":"2251",
    "sci_name":"Haloferax",
    "common_name":"",
    "rank":"genus",
    "zoom":"11",
    "nbdesc":"254",
    "all":"Haloferax |  | genus | 2251",
    "coordinates": [-5.53742973503927693457,11.16468174068593199877],
    "lat": "-5.53742973503927693457",
    "lon": "11.16468174068593199877"
  },
  {
    "taxid":"43927",
    "sci_name":"Halobaculum",
    "common_name":"",
    "rank":"genus",
    "zoom":"15",
    "nbdesc":"2",
    "all":"Halobaculum |  | genus | 43927",
    "coordinates": [-5.80628199976361081269,11.41324567544290680132],
    "lat": "-5.80628199976361081269",
    "lon": "11.41324567544290680132"
  },
  {
    "taxid":"293431",
    "sci_name":"Haloquadratum",
    "common_name":"",
    "rank":"genus",
    "zoom":"15",
    "nbdesc":"2",
    "all":"Haloquadratum |  | genus | 293431",
    "coordinates": [-5.80631982938856072707,11.46743135996324092218],
    "lat": "-5.80631982938856072707",
    "lon": "11.46743135996324092218"
  },
  {
    "taxid":"60846",
    "sci_name":"Halogeometricum",
    "common_name":"",
    "rank":"genus",
    "zoom":"13",
    "nbdesc":"41",
    "all":"Halogeometricum |  | genus | 60846",
    "coordinates": [-5.70693554428126148537,11.60151140727583829459],
    "lat": "-5.70693554428126148537",
    "lon": "11.60151140727583829459"
  },
  {
    "taxid":"1644057",
    "sci_name":"Salinigranum",
    "common_name":"",
    "rank":"genus",
    "zoom":"15",
    "nbdesc":"1",
    "all":"Salinigranum |  | genus | 1644057",
    "coordinates": [-5.76464014871009222674,11.75627612606288430186],
    "lat": "-5.76464014871009222674",
    "lon": "11.75627612606288430186"
  },
  {
    "taxid":"1073986",
    "sci_name":"Halobellus",
    "common_name":"",
    "rank":"genus",
    "zoom":"13",
    "nbdesc":"16",
    "all":"Halobellus |  | genus | 1073986",
    "coordinates": [-5.68103264099395310893,11.82515295424346213338],
    "lat": "-5.68103264099395310893",
    "lon": "11.82515295424346213338"
  },
  {
    "taxid":"695982",
    "sci_name":"Halogranum",
    "common_name":"",
    "rank":"genus",
    "zoom":"13",
    "nbdesc":"27",
    "all":"Halogranum |  | genus | 695982",
    "coordinates": [-5.58451587052537146150,11.96195297053139938726],
    "lat": "-5.58451587052537146150",
    "lon": "11.96195297053139938726"
  },
  {
    "taxid":"1075397",
    "sci_name":"Halolamina",
    "common_name":"",
    "rank":"genus",
    "zoom":"13",
    "nbdesc":"36",
    "all":"Halolamina |  | genus | 1075397",
    "coordinates": [-5.44836770214723564720,12.10733452322639891463],
    "lat": "-5.44836770214723564720",
    "lon": "12.10733452322639891463"
  },
  {
    "taxid":"869896",
    "sci_name":"Halonotius",
    "common_name":"",
    "rank":"genus",
    "zoom":"14",
    "nbdesc":"3",
    "all":"Halonotius |  | genus | 869896",
    "coordinates": [-5.38778945029229738850,12.25497725772940427191],
    "lat": "-5.38778945029229738850",
    "lon": "12.25497725772940427191"
  },
  {
    "taxid":"376170",
    "sci_name":"Haloplanus",
    "common_name":"",
    "rank":"genus",
    "zoom":"13",
    "nbdesc":"19",
    "all":"Haloplanus |  | genus | 376170",
    "coordinates": [-5.26751309811208034972,12.27763205664759560420],
    "lat": "-5.26751309811208034972",
    "lon": "12.27763205664759560420"
  },
  {
    "taxid":"1450140",
    "sci_name":"Halohasta",
    "common_name":"",
    "rank":"genus",
    "zoom":"14",
    "nbdesc":"3",
    "all":"Halohasta |  | genus | 1450140",
    "coordinates": [-5.18648083389112191099,12.36935671507175271699],
    "lat": "-5.18648083389112191099",
    "lon": "12.36935671507175271699"
  },
  {
    "taxid":"1820337",
    "sci_name":"Haloparvum",
    "common_name":"",
    "rank":"genus",
    "zoom":"15",
    "nbdesc":"1",
    "all":"Haloparvum |  | genus | 1820337",
    "coordinates": [-5.14277480169524459086,12.40132198063527368959],
    "lat": "-5.14277480169524459086",
    "lon": "12.40132198063527368959"
  },
  {
    "taxid":"1209988",
    "sci_name":"Halopenitus",
    "common_name":"",
    "rank":"genus",
    "zoom":"14",
    "nbdesc":"7",
    "all":"Halopenitus |  | genus | 1209988",
    "coordinates": [-5.06746815409307416189,12.39405808901096506247],
    "lat": "-5.06746815409307416189",
    "lon": "12.39405808901096506247"
  },
  {
    "taxid":"1008195",
    "sci_name":"Halopelagius",
    "common_name":"",
    "rank":"genus",
    "zoom":"14",
    "nbdesc":"4",
    "all":"Halopelagius |  | genus | 1008195",
    "coordinates": [-4.98514367423976789695,12.42597714679883935673],
    "lat": "-4.98514367423976789695",
    "lon": "12.42597714679883935673"
  },
  {
    "taxid":"2239",
    "sci_name":"Halobacterium",
    "common_name":"",
    "rank":"genus",
    "zoom":"12",
    "nbdesc":"224",
    "all":"Halobacterium |  | genus | 2239",
    "coordinates": [-4.61887238485952345002,13.35622044827145238344],
    "lat": "-4.61887238485952345002",
    "lon": "13.35622044827145238344"
  },
  {
    "taxid":"2237",
    "sci_name":"Haloarcula",
    "common_name":"",
    "rank":"genus",
    "zoom":"12",
    "nbdesc":"383",
    "all":"Haloarcula |  | genus | 2237",
    "coordinates": [-4.58186123279567869560,13.74930918819862668556],
    "lat": "-4.58186123279567869560",
    "lon": "13.74930918819862668556"
  },
  {
    "taxid":"63743",
    "sci_name":"Natronomonas",
    "common_name":"",
    "rank":"genus",
    "zoom":"14",
    "nbdesc":"17",
    "all":"Natronomonas |  | genus | 63743",
    "coordinates": [-4.59781679872437720746,14.08731530721625091473],
    "lat": "-4.59781679872437720746",
    "lon": "14.08731530721625091473"
  },
  {
    "taxid":"2249",
    "sci_name":"Halococcus",
    "common_name":"",
    "rank":"genus",
    "zoom":"12",
    "nbdesc":"98",
    "all":"Halococcus |  | genus | 2249",
    "coordinates": [-4.41755335254090031327,14.17230980471518542174],
    "lat": "-4.41755335254090031327",
    "lon": "14.17230980471518542174"
  },
  {
    "taxid":"926359",
    "sci_name":"Natronoarchaeum",
    "common_name":"",
    "rank":"genus",
    "zoom":"14",
    "nbdesc":"6",
    "all":"Natronoarchaeum |  | genus | 926359",
    "coordinates": [-4.32858968369928209796,14.34079507506805661876],
    "lat": "-4.32858968369928209796",
    "lon": "14.34079507506805661876"
  },
  {
    "taxid":"1269031",
    "sci_name":"Haloarchaeobius",
    "common_name":"",
    "rank":"genus",
    "zoom":"15",
    "nbdesc":"4",
    "all":"Haloarchaeobius |  | genus | 1269031",
    "coordinates": [-4.27360363108078100680,14.37375342514419074291],
    "lat": "-4.27360363108078100680",
    "lon": "14.37375342514419074291"
  },
  {
    "taxid":"1269048",
    "sci_name":"Halorubellus",
    "common_name":"",
    "rank":"genus",
    "zoom":"15",
    "nbdesc":"2",
    "all":"Halorubellus |  | genus | 1269048",
    "coordinates": [-4.23076588045259605053,14.39964153002845392848],
    "lat": "-4.23076588045259605053",
    "lon": "14.39964153002845392848"
  },
  {
    "taxid":"1377992",
    "sci_name":"Halovenus",
    "common_name":"",
    "rank":"genus",
    "zoom":"15",
    "nbdesc":"4",
    "all":"Halovenus |  | genus | 1377992",
    "coordinates": [-4.18132571626699789391,14.40744774669738070827],
    "lat": "-4.18132571626699789391",
    "lon": "14.40744774669738070827"
  },
  {
    "taxid":"146825",
    "sci_name":"Halorhabdus",
    "common_name":"",
    "rank":"genus",
    "zoom":"14",
    "nbdesc":"11",
    "all":"Halorhabdus |  | genus | 146825",
    "coordinates": [-4.10351220583297138234,14.40877661376905649604],
    "lat": "-4.10351220583297138234",
    "lon": "14.40877661376905649604"
  },
  {
    "taxid":"203135",
    "sci_name":"Halomicrobium",
    "common_name":"",
    "rank":"genus",
    "zoom":"13",
    "nbdesc":"21",
    "all":"Halomicrobium |  | genus | 203135",
    "coordinates": [-3.99206207389632750093,14.40788440857543406537],
    "lat": "-3.99206207389632750093",
    "lon": "14.40788440857543406537"
  },
  {
    "taxid":"1542963",
    "sci_name":"Halapricum",
    "common_name":"",
    "rank":"genus",
    "zoom":"16",
    "nbdesc":"1",
    "all":"Halapricum |  | genus | 1542963",
    "coordinates": [-3.91422653297881684153,14.45911613806874562727],
    "lat": "-3.91422653297881684153",
    "lon": "14.45911613806874562727"
  },
  {
    "taxid":"744724",
    "sci_name":"Halarchaeum",
    "common_name":"",
    "rank":"genus",
    "zoom":"13",
    "nbdesc":"21",
    "all":"Halarchaeum |  | genus | 744724",
    "coordinates": [-3.83794370348944546834,14.40559986519877888611],
    "lat": "-3.83794370348944546834",
    "lon": "14.40559986519877888611"
  },
  {
    "taxid":"1073987",
    "sci_name":"Halorientalis",
    "common_name":"",
    "rank":"genus",
    "zoom":"14",
    "nbdesc":"6",
    "all":"Halorientalis |  | genus | 1073987",
    "coordinates": [-3.73582727363212008242,14.41745487088234511930],
    "lat": "-3.73582727363212008242",
    "lon": "14.41745487088234511930"
  },
  {
    "taxid":"332246",
    "sci_name":"Halalkalicoccus",
    "common_name":"",
    "rank":"genus",
    "zoom":"15",
    "nbdesc":"4",
    "all":"Halalkalicoccus |  | genus | 332246",
    "coordinates": [-3.67255310694179071263,14.40715445089333535122],
    "lat": "-3.67255310694179071263",
    "lon": "14.40715445089333535122"
  },
  {
    "taxid":"871740",
    "sci_name":"Halomarina",
    "common_name":"",
    "rank":"genus",
    "zoom":"14",
    "nbdesc":"5",
    "all":"Halomarina |  | genus | 871740",
    "coordinates": [-3.61605038302700743102,14.38433709670177584883],
    "lat": "-3.61605038302700743102",
    "lon": "14.38433709670177584883"
  },
  {
    "taxid":"1070314",
    "sci_name":"Halorussus",
    "common_name":"",
    "rank":"genus",
    "zoom":"15",
    "nbdesc":"4",
    "all":"Halorussus |  | genus | 1070314",
    "coordinates": [-3.55871958500703566841,14.36368839067726632663],
    "lat": "-3.55871958500703566841",
    "lon": "14.36368839067726632663"
  },
  {
    "taxid":"1644062",
    "sci_name":"Salinirubrum",
    "common_name":"",
    "rank":"genus",
    "zoom":"16",
    "nbdesc":"1",
    "all":"Salinirubrum |  | genus | 1644062",
    "coordinates": [-3.51342156482676504226,14.35710401704366567799],
    "lat": "-3.51342156482676504226",
    "lon": "14.35710401704366567799"
  },
  {
    "taxid":"367188",
    "sci_name":"Haladaptatus",
    "common_name":"",
    "rank":"genus",
    "zoom":"14",
    "nbdesc":"11",
    "all":"Haladaptatus |  | genus | 367188",
    "coordinates": [-3.47555452781527707273,14.29843360076496772137],
    "lat": "-3.47555452781527707273",
    "lon": "14.29843360076496772137"
  },
  {
    "taxid":"1779002",
    "sci_name":"Halocalculus",
    "common_name":"",
    "rank":"genus",
    "zoom":"16",
    "nbdesc":"1",
    "all":"Halocalculus |  | genus | 1779002",
    "coordinates": [-3.40615842548739822249,14.29066757088839523249],
    "lat": "-3.40615842548739822249",
    "lon": "14.29066757088839523249"
  },
  {
    "taxid":"1075398",
    "sci_name":"Salarchaeum",
    "common_name":"",
    "rank":"genus",
    "zoom":"15",
    "nbdesc":"2",
    "all":"Salarchaeum |  | genus | 1075398",
    "coordinates": [-3.38160412014814371062,14.26477023763275830959],
    "lat": "-3.38160412014814371062",
    "lon": "14.26477023763275830959"
  },
  {
    "taxid":"1699375",
    "sci_name":"Natribaculum",
    "common_name":"",
    "rank":"genus",
    "zoom":"15",
    "nbdesc":"3",
    "all":"Natribaculum |  | genus | 1699375",
    "coordinates": [-3.34933171163365006606,14.23225342510090563053],
    "lat": "-3.34933171163365006606",
    "lon": "14.23225342510090563053"
  },
  {
    "taxid":"171163",
    "sci_name":"Halosimplex",
    "common_name":"",
    "rank":"genus",
    "zoom":"14",
    "nbdesc":"8",
    "all":"Halosimplex |  | genus | 171163",
    "coordinates": [-3.31209087079156594413,14.17646523751165688054],
    "lat": "-3.31209087079156594413",
    "lon": "14.17646523751165688054"
  },
  {
    "taxid":"1763447",
    "sci_name":"Halosiccatus",
    "common_name":"",
    "rank":"genus",
    "zoom":"16",
    "nbdesc":"1",
    "all":"Halosiccatus |  | genus | 1763447",
    "coordinates": [-3.25582063127518317458,14.15338302771924894330],
    "lat": "-3.25582063127518317458",
    "lon": "14.15338302771924894330"
  },
  {
    "taxid":"1431544",
    "sci_name":"Candidatus Halobonum",
    "common_name":"",
    "rank":"genus",
    "zoom":"16",
    "nbdesc":"1",
    "all":"Candidatus Halobonum |  | genus | 1431544",
    "coordinates": [-3.23698161846883891712,14.13100466727933302025],
    "lat": "-3.23698161846883891712",
    "lon": "14.13100466727933302025"
  },
  {
    "taxid":"1427149",
    "sci_name":"Halomicroarcula",
    "common_name":"",
    "rank":"genus",
    "zoom":"15",
    "nbdesc":"3",
    "all":"Halomicroarcula |  | genus | 1427149",
    "coordinates": [-3.22082029307624351233,14.09325192098722290268],
    "lat": "-3.22082029307624351233",
    "lon": "14.09325192098722290268"
  },
  {
    "taxid":"1656823",
    "sci_name":"Halanaeroarchaeum",
    "common_name":"",
    "rank":"genus",
    "zoom":"16",
    "nbdesc":"1",
    "all":"Halanaeroarchaeum |  | genus | 1656823",
    "coordinates": [-3.18936923421722084981,14.06684568710792682111],
    "lat": "-3.18936923421722084981",
    "lon": "14.06684568710792682111"
  },
  {
    "taxid":"119861",
    "sci_name":"Haloalcalophilium",
    "common_name":"",
    "rank":"genus",
    "zoom":"16",
    "nbdesc":"1",
    "all":"Haloalcalophilium |  | genus | 119861",
    "coordinates": [-3.17340893647583399684,14.04233103199098131597],
    "lat": "-3.17340893647583399684",
    "lon": "14.04233103199098131597"
  },
  {
    "taxid":"353799",
    "sci_name":"Halostagnicola",
    "common_name":"",
    "rank":"genus",
    "zoom":"14",
    "nbdesc":"10",
    "all":"Halostagnicola |  | genus | 353799",
    "coordinates": [-2.54536716328834922152,14.19950463521975159153],
    "lat": "-2.54536716328834922152",
    "lon": "14.19950463521975159153"
  },
  {
    "taxid":"1269201",
    "sci_name":"Salinarchaeum",
    "common_name":"",
    "rank":"genus",
    "zoom":"14",
    "nbdesc":"5",
    "all":"Salinarchaeum |  | genus | 1269201",
    "coordinates": [-2.51299562675687360169,14.28352338929945375412],
    "lat": "-2.51299562675687360169",
    "lon": "14.28352338929945375412"
  },
  {
    "taxid":"29287",
    "sci_name":"Natronococcus",
    "common_name":"",
    "rank":"genus",
    "zoom":"13",
    "nbdesc":"35",
    "all":"Natronococcus |  | genus | 29287",
    "coordinates": [-2.38834768294644783637,14.34883863618914467963],
    "lat": "-2.38834768294644783637",
    "lon": "14.34883863618914467963"
  },
  {
    "taxid":"88723",
    "sci_name":"Natrinema",
    "common_name":"",
    "rank":"genus",
    "zoom":"12",
    "nbdesc":"93",
    "all":"Natrinema |  | genus | 88723",
    "coordinates": [-2.17223111282928948995,14.43400996197651942055],
    "lat": "-2.17223111282928948995",
    "lon": "14.43400996197651942055"
  },
  {
    "taxid":"203193",
    "sci_name":"Halobiforma",
    "common_name":"",
    "rank":"genus",
    "zoom":"14",
    "nbdesc":"7",
    "all":"Halobiforma |  | genus | 203193",
    "coordinates": [-2.01123836882395545800,14.56835544264293602623],
    "lat": "-2.01123836882395545800",
    "lon": "14.56835544264293602623"
  },
  {
    "taxid":"121871",
    "sci_name":"Haloterrigena",
    "common_name":"",
    "rank":"genus",
    "zoom":"12",
    "nbdesc":"170",
    "all":"Haloterrigena |  | genus | 121871",
    "coordinates": [-1.79745513871082218671,14.41036527647905352012],
    "lat": "-1.79745513871082218671",
    "lon": "14.41036527647905352012"
  },
  {
    "taxid":"63742",
    "sci_name":"Natrialba",
    "common_name":"",
    "rank":"genus",
    "zoom":"13",
    "nbdesc":"36",
    "all":"Natrialba |  | genus | 63742",
    "coordinates": [-1.52566942123813564791,14.34032089899790918253],
    "lat": "-1.52566942123813564791",
    "lon": "14.34032089899790918253"
  },
  {
    "taxid":"2256",
    "sci_name":"Natronobacterium",
    "common_name":"",
    "rank":"genus",
    "zoom":"13",
    "nbdesc":"24",
    "all":"Natronobacterium |  | genus | 2256",
    "coordinates": [-1.41255761776739308111,14.21502546591696791722],
    "lat": "-1.41255761776739308111",
    "lon": "14.21502546591696791722"
  },
  {
    "taxid":"134813",
    "sci_name":"Natronorubrum",
    "common_name":"",
    "rank":"genus",
    "zoom":"13",
    "nbdesc":"16",
    "all":"Natronorubrum |  | genus | 134813",
    "coordinates": [-1.34628453819120919022,14.09042469803430464026],
    "lat": "-1.34628453819120919022",
    "lon": "14.09042469803430464026"
  },
  {
    "taxid":"332951",
    "sci_name":"Halovivax",
    "common_name":"",
    "rank":"genus",
    "zoom":"13",
    "nbdesc":"17",
    "all":"Halovivax |  | genus | 332951",
    "coordinates": [-1.32424165156928186349,13.96284182474058610524],
    "lat": "-1.32424165156928186349",
    "lon": "13.96284182474058610524"
  },
  {
    "taxid":"387342",
    "sci_name":"Halopiger",
    "common_name":"",
    "rank":"genus",
    "zoom":"13",
    "nbdesc":"23",
    "all":"Halopiger |  | genus | 387342",
    "coordinates": [-1.33778895967598021599,13.82234771638396431115],
    "lat": "-1.33778895967598021599",
    "lon": "13.82234771638396431115"
  },
  {
    "taxid":"253106",
    "sci_name":"Natronolimnobius",
    "common_name":"",
    "rank":"genus",
    "zoom":"14",
    "nbdesc":"6",
    "all":"Natronolimnobius |  | genus | 253106",
    "coordinates": [-1.33041605149711417155,13.70071669047644391526],
    "lat": "-1.33041605149711417155",
    "lon": "13.70071669047644391526"
  },
  {
    "taxid":"2160",
    "sci_name":"Methanobacterium",
    "common_name":"",
    "rank":"genus",
    "zoom":"11",
    "nbdesc":"69",
    "all":"Methanobacterium |  | genus | 2160",
    "coordinates": [-0.23351007540749327274,15.44192229318896991686],
    "lat": "-0.23351007540749327274",
    "lon": "15.44192229318896991686"
  },
  {
    "taxid":"2316",
    "sci_name":"Methanosphaera",
    "common_name":"",
    "rank":"genus",
    "zoom":"13",
    "nbdesc":"4",
    "all":"Methanosphaera |  | genus | 2316",
    "coordinates": [-0.11312904723840225274,15.82611920763257096212],
    "lat": "-0.11312904723840225274",
    "lon": "15.82611920763257096212"
  },
  {
    "taxid":"2172",
    "sci_name":"Methanobrevibacter",
    "common_name":"",
    "rank":"genus",
    "zoom":"11",
    "nbdesc":"91",
    "all":"Methanobrevibacter |  | genus | 2172",
    "coordinates": [0.29102313533428014747,15.65122594123621446727],
    "lat": "0.29102313533428014747",
    "lon": "15.65122594123621446727"
  },
  {
    "taxid":"145260",
    "sci_name":"Methanothermobacter",
    "common_name":"",
    "rank":"genus",
    "zoom":"12",
    "nbdesc":"11",
    "all":"Methanothermobacter |  | genus | 145260",
    "coordinates": [0.69872518860361099158,15.48127198975689289284],
    "lat": "0.69872518860361099158",
    "lon": "15.48127198975689289284"
  },
  {
    "taxid":"2179",
    "sci_name":"Methanothermus",
    "common_name":"",
    "rank":"genus",
    "zoom":"13",
    "nbdesc":"3",
    "all":"Methanothermus |  | genus | 2179",
    "coordinates": [0.90821752292892898861,15.25214096350737591479],
    "lat": "0.90821752292892898861",
    "lon": "15.25214096350737591479"
  },
  {
    "taxid":"81416",
    "sci_name":"Methanofollis",
    "common_name":"",
    "rank":"genus",
    "zoom":"14",
    "nbdesc":"8",
    "all":"Methanofollis |  | genus | 81416",
    "coordinates": [1.63187020114996372833,14.74539213185018127206],
    "lat": "1.63187020114996372833",
    "lon": "14.74539213185018127206"
  },
  {
    "taxid":"45989",
    "sci_name":"Methanoculleus",
    "common_name":"",
    "rank":"genus",
    "zoom":"13",
    "nbdesc":"48",
    "all":"Methanoculleus |  | genus | 45989",
    "coordinates": [1.57848076951414451052,14.87979156713149819780],
    "lat": "1.57848076951414451052",
    "lon": "14.87979156713149819780"
  },
  {
    "taxid":"230355",
    "sci_name":"Methanolacinia",
    "common_name":"",
    "rank":"genus",
    "zoom":"15",
    "nbdesc":"2",
    "all":"Methanolacinia |  | genus | 230355",
    "coordinates": [1.53165194210147070919,15.01537686847189512207],
    "lat": "1.53165194210147070919",
    "lon": "15.01537686847189512207"
  },
  {
    "taxid":"2204",
    "sci_name":"Methanomicrobium",
    "common_name":"",
    "rank":"genus",
    "zoom":"15",
    "nbdesc":"1",
    "all":"Methanomicrobium |  | genus | 2204",
    "coordinates": [1.55420184044597808892,15.05673820769633586281],
    "lat": "1.55420184044597808892",
    "lon": "15.05673820769633586281"
  },
  {
    "taxid":"2314",
    "sci_name":"Methanoplanus",
    "common_name":"",
    "rank":"genus",
    "zoom":"14",
    "nbdesc":"4",
    "all":"Methanoplanus |  | genus | 2314",
    "coordinates": [1.60893622838655003804,15.07838828811396147955],
    "lat": "1.60893622838655003804",
    "lon": "15.07838828811396147955"
  },
  {
    "taxid":"2195",
    "sci_name":"Methanogenium",
    "common_name":"",
    "rank":"genus",
    "zoom":"14",
    "nbdesc":"7",
    "all":"Methanogenium |  | genus | 2195",
    "coordinates": [1.68927592682260074852,15.09387731434836688038],
    "lat": "1.68927592682260074852",
    "lon": "15.09387731434836688038"
  },
  {
    "taxid":"71151",
    "sci_name":"Methanocalculus",
    "common_name":"",
    "rank":"genus",
    "zoom":"12",
    "nbdesc":"36",
    "all":"Methanocalculus |  | genus | 71151",
    "coordinates": [1.87459960972463757223,15.25726782629625866150],
    "lat": "1.87459960972463757223",
    "lon": "15.25726782629625866150"
  },
  {
    "taxid":"2202",
    "sci_name":"Methanospirillum",
    "common_name":"",
    "rank":"genus",
    "zoom":"13",
    "nbdesc":"7",
    "all":"Methanospirillum |  | genus | 2202",
    "coordinates": [2.14451473965275019040,15.35670318511772691750],
    "lat": "2.14451473965275019040",
    "lon": "15.35670318511772691750"
  },
  {
    "taxid":"499551",
    "sci_name":"Methanolinea",
    "common_name":"",
    "rank":"genus",
    "zoom":"14",
    "nbdesc":"5",
    "all":"Methanolinea |  | genus | 499551",
    "coordinates": [2.29837117386220901594,15.31533704912665605491],
    "lat": "2.29837117386220901594",
    "lon": "15.31533704912665605491"
  },
  {
    "taxid":"395331",
    "sci_name":"Methanoregula",
    "common_name":"",
    "rank":"genus",
    "zoom":"14",
    "nbdesc":"2",
    "all":"Methanoregula |  | genus | 395331",
    "coordinates": [2.36357069635266681118,15.30283061333358141098],
    "lat": "2.36357069635266681118",
    "lon": "15.30283061333358141098"
  },
  {
    "taxid":"475087",
    "sci_name":"Methanosphaerula",
    "common_name":"",
    "rank":"genus",
    "zoom":"15",
    "nbdesc":"1",
    "all":"Methanosphaerula |  | genus | 475087",
    "coordinates": [2.38050535874237079170,15.25161308226328316096],
    "lat": "2.38050535874237079170",
    "lon": "15.25161308226328316096"
  },
  {
    "taxid":"2192",
    "sci_name":"Methanocorpusculum",
    "common_name":"",
    "rank":"genus",
    "zoom":"13",
    "nbdesc":"8",
    "all":"Methanocorpusculum |  | genus | 2192",
    "coordinates": [2.46422757085199117810,15.14883717803732388063],
    "lat": "2.46422757085199117810",
    "lon": "15.14883717803732388063"
  },
  {
    "taxid":"2222",
    "sci_name":"Methanosaeta",
    "common_name":"",
    "rank":"genus",
    "zoom":"12",
    "nbdesc":"12",
    "all":"Methanosaeta |  | genus | 2222",
    "coordinates": [2.78512554285467928139,15.04823922074980835362],
    "lat": "2.78512554285467928139",
    "lon": "15.04823922074980835362"
  },
  {
    "taxid":"2207",
    "sci_name":"Methanosarcina",
    "common_name":"",
    "rank":"genus",
    "zoom":"13",
    "nbdesc":"51",
    "all":"Methanosarcina |  | genus | 2207",
    "coordinates": [3.07924229565442297840,14.93525750513899730265],
    "lat": "3.07924229565442297840",
    "lon": "14.93525750513899730265"
  },
  {
    "taxid":"2225",
    "sci_name":"Methanococcoides",
    "common_name":"",
    "rank":"genus",
    "zoom":"13",
    "nbdesc":"12",
    "all":"Methanococcoides |  | genus | 2225",
    "coordinates": [3.25360209107428577369,14.92748526049231116986],
    "lat": "3.25360209107428577369",
    "lon": "14.92748526049231116986"
  },
  {
    "taxid":"2175",
    "sci_name":"Methanohalophilus",
    "common_name":"",
    "rank":"genus",
    "zoom":"13",
    "nbdesc":"19",
    "all":"Methanohalophilus |  | genus | 2175",
    "coordinates": [3.32948109933432734309,14.81693275637265827527],
    "lat": "3.32948109933432734309",
    "lon": "14.81693275637265827527"
  },
  {
    "taxid":"2220",
    "sci_name":"Methanolobus",
    "common_name":"",
    "rank":"genus",
    "zoom":"13",
    "nbdesc":"14",
    "all":"Methanolobus |  | genus | 2220",
    "coordinates": [3.36736451811068793205,14.68487337866176645207],
    "lat": "3.36736451811068793205",
    "lon": "14.68487337866176645207"
  },
  {
    "taxid":"2321",
    "sci_name":"Methanohalobium",
    "common_name":"",
    "rank":"genus",
    "zoom":"15",
    "nbdesc":"2",
    "all":"Methanohalobium |  | genus | 2321",
    "coordinates": [3.38703635711032546851,14.58445401080911096869],
    "lat": "3.38703635711032546851",
    "lon": "14.58445401080911096869"
  },
  {
    "taxid":"101191",
    "sci_name":"Methanomethylovorans",
    "common_name":"",
    "rank":"genus",
    "zoom":"14",
    "nbdesc":"7",
    "all":"Methanomethylovorans |  | genus | 101191",
    "coordinates": [3.33379580082506521421,14.52486522776361788090],
    "lat": "3.33379580082506521421",
    "lon": "14.52486522776361788090"
  },
  {
    "taxid":"196136",
    "sci_name":"Methanosalsum",
    "common_name":"",
    "rank":"genus",
    "zoom":"14",
    "nbdesc":"5",
    "all":"Methanosalsum |  | genus | 196136",
    "coordinates": [3.27825172642201900786,14.45313369931031388660],
    "lat": "3.27825172642201900786",
    "lon": "14.45313369931031388660"
  },
  {
    "taxid":"91559",
    "sci_name":"Methanimicrococcus",
    "common_name":"",
    "rank":"genus",
    "zoom":"15",
    "nbdesc":"1",
    "all":"Methanimicrococcus |  | genus | 91559",
    "coordinates": [3.23837340034334397743,14.39971162348215116822],
    "lat": "3.23837340034334397743",
    "lon": "14.39971162348215116822"
  },
  {
    "taxid":"660063",
    "sci_name":"Methermicoccus",
    "common_name":"",
    "rank":"genus",
    "zoom":"15",
    "nbdesc":"1",
    "all":"Methermicoccus |  | genus | 660063",
    "coordinates": [3.31009156592609077308,14.25718066145905993380],
    "lat": "3.31009156592609077308",
    "lon": "14.25718066145905993380"
  },
  {
    "taxid":"1392997",
    "sci_name":"Candidatus Methanoperedens",
    "common_name":"",
    "rank":"genus",
    "zoom":"14",
    "nbdesc":"2",
    "all":"Candidatus Methanoperedens |  | genus | 1392997",
    "coordinates": [3.20161391534149997184,14.19080746698785056026],
    "lat": "3.20161391534149997184",
    "lon": "14.19080746698785056026"
  },
  {
    "taxid":"570266",
    "sci_name":"Methanocella",
    "common_name":"",
    "rank":"genus",
    "zoom":"13",
    "nbdesc":"3",
    "all":"Methanocella |  | genus | 570266",
    "coordinates": [3.41393308087799018935,13.92616392218810794645],
    "lat": "3.41393308087799018935",
    "lon": "13.92616392218810794645"
  },
  {
    "taxid":"83867",
    "sci_name":"Palaeococcus",
    "common_name":"",
    "rank":"genus",
    "zoom":"13",
    "nbdesc":"4",
    "all":"Palaeococcus |  | genus | 83867",
    "coordinates": [4.21756042894883265149,13.50973980624084092028],
    "lat": "4.21756042894883265149",
    "lon": "13.50973980624084092028"
  },
  {
    "taxid":"2263",
    "sci_name":"Thermococcus",
    "common_name":"",
    "rank":"genus",
    "zoom":"10",
    "nbdesc":"329",
    "all":"Thermococcus |  | genus | 2263",
    "coordinates": [4.87673972906831298957,13.12229856532032812311],
    "lat": "4.87673972906831298957",
    "lon": "13.12229856532032812311"
  },
  {
    "taxid":"2260",
    "sci_name":"Pyrococcus",
    "common_name":"",
    "rank":"genus",
    "zoom":"11",
    "nbdesc":"86",
    "all":"Pyrococcus |  | genus | 2260",
    "coordinates": [5.26356839528464526268,12.53776530356928553545],
    "lat": "5.26356839528464526268",
    "lon": "12.53776530356928553545"
  },
  {
    "taxid":"2184",
    "sci_name":"Methanococcus",
    "common_name":"",
    "rank":"genus",
    "zoom":"12",
    "nbdesc":"18",
    "all":"Methanococcus |  | genus | 2184",
    "coordinates": [6.27417618518140685069,11.33600597227443529391],
    "lat": "6.27417618518140685069",
    "lon": "11.33600597227443529391"
  },
  {
    "taxid":"155862",
    "sci_name":"Methanothermococcus",
    "common_name":"",
    "rank":"genus",
    "zoom":"12",
    "nbdesc":"13",
    "all":"Methanothermococcus |  | genus | 155862",
    "coordinates": [6.43070679037968950809,11.23916652253695680486],
    "lat": "6.43070679037968950809",
    "lon": "11.23916652253695680486"
  },
  {
    "taxid":"196118",
    "sci_name":"Methanocaldococcus",
    "common_name":"",
    "rank":"genus",
    "zoom":"12",
    "nbdesc":"17",
    "all":"Methanocaldococcus |  | genus | 196118",
    "coordinates": [6.47305656160104003760,10.88696493858888381112],
    "lat": "6.47305656160104003760",
    "lon": "10.88696493858888381112"
  },
  {
    "taxid":"196119",
    "sci_name":"Methanotorris",
    "common_name":"",
    "rank":"genus",
    "zoom":"13",
    "nbdesc":"3",
    "all":"Methanotorris |  | genus | 196119",
    "coordinates": [6.38733546265644225315,10.74840595738406889836],
    "lat": "6.38733546265644225315",
    "lon": "10.74840595738406889836"
  },
  {
    "taxid":"1080709",
    "sci_name":"Methanomassiliicoccus",
    "common_name":"",
    "rank":"genus",
    "zoom":"13",
    "nbdesc":"7",
    "all":"Methanomassiliicoccus |  | genus | 1080709",
    "coordinates": [6.52983870424396251053,10.32658448199249079380],
    "lat": "6.52983870424396251053",
    "lon": "10.32658448199249079380"
  },
  {
    "taxid":"1607807",
    "sci_name":"Candidatus Methanoplasma",
    "common_name":"",
    "rank":"genus",
    "zoom":"14",
    "nbdesc":"1",
    "all":"Candidatus Methanoplasma |  | genus | 1607807",
    "coordinates": [6.63619989807035626228,10.35510875022496435349],
    "lat": "6.63619989807035626228",
    "lon": "10.35510875022496435349"
  },
  {
    "taxid":"1577789",
    "sci_name":"Candidatus Methanogranum",
    "common_name":"",
    "rank":"genus",
    "zoom":"14",
    "nbdesc":"1",
    "all":"Candidatus Methanogranum |  | genus | 1577789",
    "coordinates": [6.68392441830581862661,10.30525367230827349374],
    "lat": "6.68392441830581862661",
    "lon": "10.30525367230827349374"
  },
  {
    "taxid":"1291539",
    "sci_name":"Candidatus Methanomethylophilus",
    "common_name":"",
    "rank":"genus",
    "zoom":"14",
    "nbdesc":"2",
    "all":"Candidatus Methanomethylophilus |  | genus | 1291539",
    "coordinates": [6.68822905894888108946,10.22528603640021316323],
    "lat": "6.68822905894888108946",
    "lon": "10.22528603640021316323"
  },
  {
    "taxid":"46631",
    "sci_name":"Picrophilus",
    "common_name":"",
    "rank":"genus",
    "zoom":"14",
    "nbdesc":"2",
    "all":"Picrophilus |  | genus | 46631",
    "coordinates": [6.76151585170846924910,10.02631469607013592338],
    "lat": "6.76151585170846924910",
    "lon": "10.02631469607013592338"
  },
  {
    "taxid":"2302",
    "sci_name":"Thermoplasma",
    "common_name":"",
    "rank":"genus",
    "zoom":"13",
    "nbdesc":"12",
    "all":"Thermoplasma |  | genus | 2302",
    "coordinates": [6.79220335329279656378,9.84113496667040443810],
    "lat": "6.79220335329279656378",
    "lon": "9.84113496667040443810"
  },
  {
    "taxid":"74968",
    "sci_name":"Ferroplasma",
    "common_name":"",
    "rank":"genus",
    "zoom":"13",
    "nbdesc":"6",
    "all":"Ferroplasma |  | genus | 74968",
    "coordinates": [6.70896886627994515351,9.65565101514872914379],
    "lat": "6.70896886627994515351",
    "lon": "9.65565101514872914379"
  },
  {
    "taxid":"507753",
    "sci_name":"Acidiplasma",
    "common_name":"",
    "rank":"genus",
    "zoom":"14",
    "nbdesc":"3",
    "all":"Acidiplasma |  | genus | 507753",
    "coordinates": [6.63849410919902371830,9.62613499077130008175],
    "lat": "6.63849410919902371830",
    "lon": "9.62613499077130008175"
  },
  {
    "taxid":"1747777",
    "sci_name":"Cuniculiplasma",
    "common_name":"",
    "rank":"genus",
    "zoom":"15",
    "nbdesc":"1",
    "all":"Cuniculiplasma |  | genus | 1747777",
    "coordinates": [6.51652630184673409275,9.59234748202724496480],
    "lat": "6.51652630184673409275",
    "lon": "9.59234748202724496480"
  },
  {
    "taxid":"2233",
    "sci_name":"Archaeoglobus",
    "common_name":"",
    "rank":"genus",
    "zoom":"12",
    "nbdesc":"13",
    "all":"Archaeoglobus |  | genus | 2233",
    "coordinates": [6.81717528908462266912,9.15360372194762028641],
    "lat": "6.81717528908462266912",
    "lon": "9.15360372194762028641"
  },
  {
    "taxid":"54260",
    "sci_name":"Ferroglobus",
    "common_name":"",
    "rank":"genus",
    "zoom":"14",
    "nbdesc":"1",
    "all":"Ferroglobus |  | genus | 54260",
    "coordinates": [6.93176965005155665267,9.02156755910271357379],
    "lat": "6.93176965005155665267",
    "lon": "9.02156755910271357379"
  },
  {
    "taxid":"190818",
    "sci_name":"Geoglobus",
    "common_name":"",
    "rank":"genus",
    "zoom":"13",
    "nbdesc":"7",
    "all":"Geoglobus |  | genus | 190818",
    "coordinates": [6.81301206986288132583,8.93415098342057234504],
    "lat": "6.81301206986288132583",
    "lon": "8.93415098342057234504"
  },
  {
    "taxid":"2319",
    "sci_name":"Methanopyrus",
    "common_name":"",
    "rank":"genus",
    "zoom":"13",
    "nbdesc":"2",
    "all":"Methanopyrus |  | genus | 2319",
    "coordinates": [6.89997406738504981405,8.52203799032652575818],
    "lat": "6.89997406738504981405",
    "lon": "8.52203799032652575818"
  },
  {
    "taxid":"338191",
    "sci_name":"Nitrosopumilus",
    "common_name":"",
    "rank":"genus",
    "zoom":"12",
    "nbdesc":"18",
    "all":"Nitrosopumilus |  | genus | 338191",
    "coordinates": [7.76833831118758411094,7.92873164728645818400],
    "lat": "7.76833831118758411094",
    "lon": "7.92873164728645818400"
  },
  {
    "taxid":"1007082",
    "sci_name":"Candidatus Nitrosoarchaeum",
    "common_name":"",
    "rank":"genus",
    "zoom":"13",
    "nbdesc":"2",
    "all":"Candidatus Nitrosoarchaeum |  | genus | 1007082",
    "coordinates": [7.98683244676141601559,8.00002246416860174349],
    "lat": "7.98683244676141601559",
    "lon": "8.00002246416860174349"
  },
  {
    "taxid":"1033997",
    "sci_name":"Nitrososphaeraceae",
    "common_name":"",
    "rank":"family",
    "zoom":"12",
    "nbdesc":"8",
    "all":"Nitrososphaeraceae |  | family | 1033997",
    "coordinates": [8.42368935587506051377,7.73532702711609321256],
    "lat": "8.42368935587506051377",
    "lon": "7.73532702711609321256"
  },
  {
    "taxid":"46769",
    "sci_name":"Cenarchaeum",
    "common_name":"",
    "rank":"genus",
    "zoom":"15",
    "nbdesc":"1",
    "all":"Cenarchaeum |  | genus | 46769",
    "coordinates": [8.61466329170041333896,7.32661519590817977843],
    "lat": "8.61466329170041333896",
    "lon": "7.32661519590817977843"
  },
  {
    "taxid":"118883",
    "sci_name":"Sulfolobaceae",
    "common_name":"",
    "rank":"family",
    "zoom":"11",
    "nbdesc":"94",
    "all":"Sulfolobaceae |  | family | 118883",
    "coordinates": [8.99802283069043085106,6.14338241558975806100],
    "lat": "8.99802283069043085106",
    "lon": "6.14338241558975806100"
  },
  {
    "taxid":"1247924",
    "sci_name":"Sulfolobaceae sp. WOT28.1",
    "common_name":"",
    "rank":"species",
    "zoom":"13",
    "nbdesc":"1",
    "all":"Sulfolobaceae sp. WOT28.1 |  | species | 1247924",
    "coordinates": [9.26613342048679733409,5.83342071180341381620],
    "lat": "9.26613342048679733409",
    "lon": "5.83342071180341381620"
  },
  {
    "taxid":"2267",
    "sci_name":"Thermoproteaceae",
    "common_name":"",
    "rank":"family",
    "zoom":"11",
    "nbdesc":"52",
    "all":"Thermoproteaceae |  | family | 2267",
    "coordinates": [9.30154524101111590539,5.39381708319800257101],
    "lat": "9.30154524101111590539",
    "lon": "5.39381708319800257101"
  },
  {
    "taxid":"114378",
    "sci_name":"Thermofilaceae",
    "common_name":"",
    "rank":"family",
    "zoom":"13",
    "nbdesc":"5",
    "all":"Thermofilaceae |  | family | 114378",
    "coordinates": [9.22265987343079096661,5.10935892339174468901],
    "lat": "9.22265987343079096661",
    "lon": "5.10935892339174468901"
  },
  {
    "taxid":"2272",
    "sci_name":"Desulfurococcaceae",
    "common_name":"",
    "rank":"family",
    "zoom":"12",
    "nbdesc":"31",
    "all":"Desulfurococcaceae |  | family | 2272",
    "coordinates": [8.93344478141770537150,4.77296283583501335102],
    "lat": "8.93344478141770537150",
    "lon": "4.77296283583501335102"
  },
  {
    "taxid":"2307",
    "sci_name":"Pyrodictiaceae",
    "common_name":"",
    "rank":"family",
    "zoom":"12",
    "nbdesc":"9",
    "all":"Pyrodictiaceae |  | family | 2307",
    "coordinates": [8.72250034084509451304,4.65462277869701246402],
    "lat": "8.72250034084509451304",
    "lon": "4.65462277869701246402"
  },
  {
    "taxid":"871007",
    "sci_name":"Acidilobaceae",
    "common_name":"",
    "rank":"family",
    "zoom":"13",
    "nbdesc":"7",
    "all":"Acidilobaceae |  | family | 871007",
    "coordinates": [8.40465152268144422010,4.50947420563104284241],
    "lat": "8.40465152268144422010",
    "lon": "4.50947420563104284241"
  },
  {
    "taxid":"255472",
    "sci_name":"Caldisphaeraceae",
    "common_name":"",
    "rank":"family",
    "zoom":"13",
    "nbdesc":"2",
    "all":"Caldisphaeraceae |  | family | 255472",
    "coordinates": [8.27450852268753678231,4.51195118984463938716],
    "lat": "8.27450852268753678231",
    "lon": "4.51195118984463938716"
  },
  {
    "taxid":"685949",
    "sci_name":"Fervidicoccaceae",
    "common_name":"",
    "rank":"family",
    "zoom":"14",
    "nbdesc":"1",
    "all":"Fervidicoccaceae |  | family | 685949",
    "coordinates": [8.10126425966481988894,4.45748230947571411065],
    "lat": "8.10126425966481988894",
    "lon": "4.45748230947571411065"
  },
  {
    "taxid":"889948",
    "sci_name":"Candidatus Nanosalina sp. J07AB43",
    "common_name":"",
    "rank":"species",
    "zoom":"15",
    "nbdesc":"1",
    "all":"Candidatus Nanosalina sp. J07AB43 |  | species | 889948",
    "coordinates": [8.64963174066330608980,2.89050864590105272001],
    "lat": "8.64963174066330608980",
    "lon": "2.89050864590105272001"
  },
  {
    "taxid":"889962",
    "sci_name":"Candidatus Nanosalinarum sp. J07AB56",
    "common_name":"",
    "rank":"species",
    "zoom":"15",
    "nbdesc":"1",
    "all":"Candidatus Nanosalinarum sp. J07AB56 |  | species | 889962",
    "coordinates": [8.73894528701310413510,2.83953462092282427065],
    "lat": "8.73894528701310413510",
    "lon": "2.83953462092282427065"
  },
  {
    "taxid":"1072681",
    "sci_name":"Candidatus Haloredivivus sp. G17",
    "common_name":"",
    "rank":"species",
    "zoom":"15",
    "nbdesc":"1",
    "all":"Candidatus Haloredivivus sp. G17 |  | species | 1072681",
    "coordinates": [8.73945725962371611217,2.73669980839270365891],
    "lat": "8.73945725962371611217",
    "lon": "2.73669980839270365891"
  },
  {
    "taxid":"458752",
    "sci_name":"Halorubrum sp. TP121",
    "common_name":"",
    "rank":"species",
    "zoom":"20",
    "nbdesc":"1",
    "all":"Halorubrum sp. TP121 |  | species | 458752",
    "coordinates": [-4.67529053752401768662,10.68963616990862419698],
    "lat": "-4.67529053752401768662",
    "lon": "10.68963616990862419698"
  },
  {
    "taxid":"458753",
    "sci_name":"Halorubrum sp. TP124",
    "common_name":"",
    "rank":"species",
    "zoom":"20",
    "nbdesc":"1",
    "all":"Halorubrum sp. TP124 |  | species | 458753",
    "coordinates": [-4.67585683321099310206,10.68823225885999406159],
    "lat": "-4.67585683321099310206",
    "lon": "10.68823225885999406159"
  },
  {
    "taxid":"458754",
    "sci_name":"Halorubrum sp. TP125",
    "common_name":"",
    "rank":"species",
    "zoom":"20",
    "nbdesc":"1",
    "all":"Halorubrum sp. TP125 |  | species | 458754",
    "coordinates": [-4.67642861709876989096,10.68683057407972647468],
    "lat": "-4.67642861709876989096",
    "lon": "10.68683057407972647468"
  },
  {
    "taxid":"458755",
    "sci_name":"Halorubrum sp. TP126",
    "common_name":"",
    "rank":"species",
    "zoom":"20",
    "nbdesc":"1",
    "all":"Halorubrum sp. TP126 |  | species | 458755",
    "coordinates": [-4.67700588043549636552,10.68543113702232538742],
    "lat": "-4.67700588043549636552",
    "lon": "10.68543113702232538742"
  },
  {
    "taxid":"458756",
    "sci_name":"Halorubrum sp. TP132",
    "common_name":"",
    "rank":"species",
    "zoom":"20",
    "nbdesc":"1",
    "all":"Halorubrum sp. TP132 |  | species | 458756",
    "coordinates": [-4.67758861438544837341,10.68403396910789027174],
    "lat": "-4.67758861438544837341",
    "lon": "10.68403396910789027174"
  },
  {
    "taxid":"458757",
    "sci_name":"Halorubrum sp. TP133",
    "common_name":"",
    "rank":"species",
    "zoom":"20",
    "nbdesc":"1",
    "all":"Halorubrum sp. TP133 |  | species | 458757",
    "coordinates": [-4.67817681002916962996,10.68263909172178571794],
    "lat": "-4.67817681002916962996",
    "lon": "10.68263909172178571794"
  },
  {
    "taxid":"458758",
    "sci_name":"Halorubrum sp. TP150",
    "common_name":"",
    "rank":"species",
    "zoom":"20",
    "nbdesc":"1",
    "all":"Halorubrum sp. TP150 |  | species | 458758",
    "coordinates": [-4.67877045836360405673,10.68124652621432346677],
    "lat": "-4.67877045836360405673",
    "lon": "10.68124652621432346677"
  },
  {
    "taxid":"458759",
    "sci_name":"Halorubrum sp. TP151",
    "common_name":"",
    "rank":"species",
    "zoom":"20",
    "nbdesc":"1",
    "all":"Halorubrum sp. TP151 |  | species | 458759",
    "coordinates": [-4.67936955030223789009,10.67985629390041957265],
    "lat": "-4.67936955030223789009",
    "lon": "10.67985629390041957265"
  },
  {
    "taxid":"458760",
    "sci_name":"Halorubrum sp. TP152",
    "common_name":"",
    "rank":"species",
    "zoom":"20",
    "nbdesc":"1",
    "all":"Halorubrum sp. TP152 |  | species | 458760",
    "coordinates": [-4.67997407667523379615,10.67846841605928709384],
    "lat": "-4.67997407667523379615",
    "lon": "10.67846841605928709384"
  },
  {
    "taxid":"458761",
    "sci_name":"Halorubrum sp. TP158",
    "common_name":"",
    "rank":"species",
    "zoom":"20",
    "nbdesc":"1",
    "all":"Halorubrum sp. TP158 |  | species | 458761",
    "coordinates": [-4.68058402822957653200,10.67708291393409503200],
    "lat": "-4.68058402822957653200",
    "lon": "10.67708291393409503200"
  },
  {
    "taxid":"458762",
    "sci_name":"Halorubrum sp. TP163",
    "common_name":"",
    "rank":"species",
    "zoom":"20",
    "nbdesc":"1",
    "all":"Halorubrum sp. TP163 |  | species | 458762",
    "coordinates": [-4.68119939562920794884,10.67569980873165214064],
    "lat": "-4.68119939562920794884",
    "lon": "10.67569980873165214064"
  },
  {
    "taxid":"458763",
    "sci_name":"Halorubrum sp. TP165",
    "common_name":"",
    "rank":"species",
    "zoom":"20",
    "nbdesc":"1",
    "all":"Halorubrum sp. TP165 |  | species | 458763",
    "coordinates": [-4.68182016945517709416,10.67431912162207829908],
    "lat": "-4.68182016945517709416",
    "lon": "10.67431912162207829908"
  },
  {
    "taxid":"458779",
    "sci_name":"Halorubrum sp. TP203",
    "common_name":"",
    "rank":"species",
    "zoom":"20",
    "nbdesc":"1",
    "all":"Halorubrum sp. TP203 |  | species | 458779",
    "coordinates": [-4.68244634020578054390,10.67294087373847943923],
    "lat": "-4.68244634020578054390",
    "lon": "10.67294087373847943923"
  },
  {
    "taxid":"458780",
    "sci_name":"Halorubrum sp. TP205",
    "common_name":"",
    "rank":"species",
    "zoom":"20",
    "nbdesc":"1",
    "all":"Halorubrum sp. TP205 |  | species | 458780",
    "coordinates": [-4.68307789829670717552,10.67156508617662957761],
    "lat": "-4.68307789829670717552",
    "lon": "10.67156508617662957761"
  },
  {
    "taxid":"458781",
    "sci_name":"Halorubrum sp. TP207",
    "common_name":"",
    "rank":"species",
    "zoom":"20",
    "nbdesc":"1",
    "all":"Halorubrum sp. TP207 |  | species | 458781",
    "coordinates": [-4.68371483406118649384,10.67019177999464396578],
    "lat": "-4.68371483406118649384",
    "lon": "10.67019177999464396578"
  },
  {
    "taxid":"458782",
    "sci_name":"Halorubrum sp. TP210",
    "common_name":"",
    "rank":"species",
    "zoom":"20",
    "nbdesc":"1",
    "all":"Halorubrum sp. TP210 |  | species | 458782",
    "coordinates": [-4.68435713775013606863,10.66882097621265401699],
    "lat": "-4.68435713775013606863",
    "lon": "10.66882097621265401699"
  },
  {
    "taxid":"458783",
    "sci_name":"Halorubrum sp. TP212",
    "common_name":"",
    "rank":"species",
    "zoom":"20",
    "nbdesc":"1",
    "all":"Halorubrum sp. TP212 |  | species | 458783",
    "coordinates": [-4.68500479953231074859,10.66745269581249289104],
    "lat": "-4.68500479953231074859",
    "lon": "10.66745269581249289104"
  },
  {
    "taxid":"458784",
    "sci_name":"Halorubrum sp. TP214",
    "common_name":"",
    "rank":"species",
    "zoom":"20",
    "nbdesc":"1",
    "all":"Halorubrum sp. TP214 |  | species | 458784",
    "coordinates": [-4.68565780949445453984,10.66608695973736864460],
    "lat": "-4.68565780949445453984",
    "lon": "10.66608695973736864460"
  },
  {
    "taxid":"458785",
    "sci_name":"Halorubrum sp. TP215",
    "common_name":"",
    "rank":"species",
    "zoom":"20",
    "nbdesc":"1",
    "all":"Halorubrum sp. TP215 |  | species | 458785",
    "coordinates": [-4.68631615764144893177,10.66472378889154626336],
    "lat": "-4.68631615764144893177",
    "lon": "10.66472378889154626336"
  },
  {
    "taxid":"458786",
    "sci_name":"Halorubrum sp. TP218",
    "common_name":"",
    "rank":"species",
    "zoom":"20",
    "nbdesc":"1",
    "all":"Halorubrum sp. TP218 |  | species | 458786",
    "coordinates": [-4.68697983389646921637,10.66336320414002258872],
    "lat": "-4.68697983389646921637",
    "lon": "10.66336320414002258872"
  },
  {
    "taxid":"458787",
    "sci_name":"Halorubrum sp. TP219",
    "common_name":"",
    "rank":"species",
    "zoom":"20",
    "nbdesc":"1",
    "all":"Halorubrum sp. TP219 |  | species | 458787",
    "coordinates": [-4.68764882810113636680,10.66200522630821723169],
    "lat": "-4.68764882810113636680",
    "lon": "10.66200522630821723169"
  },
  {
    "taxid":"458788",
    "sci_name":"Halorubrum sp. TP220",
    "common_name":"",
    "rank":"species",
    "zoom":"20",
    "nbdesc":"1",
    "all":"Halorubrum sp. TP220 |  | species | 458788",
    "coordinates": [-4.68832313001567602129,10.66064987618164394689],
    "lat": "-4.68832313001567602129",
    "lon": "10.66064987618164394689"
  },
  {
    "taxid":"458789",
    "sci_name":"Halorubrum sp. TP224",
    "common_name":"",
    "rank":"species",
    "zoom":"20",
    "nbdesc":"1",
    "all":"Halorubrum sp. TP224 |  | species | 458789",
    "coordinates": [-4.68900272931906947349,10.65929717450559621739],
    "lat": "-4.68900272931906947349",
    "lon": "10.65929717450559621739"
  },
  {
    "taxid":"458790",
    "sci_name":"Halorubrum sp. TP225",
    "common_name":"",
    "rank":"species",
    "zoom":"20",
    "nbdesc":"1",
    "all":"Halorubrum sp. TP225 |  | species | 458790",
    "coordinates": [-4.68968761560921709730,10.65794714198483106316],
    "lat": "-4.68968761560921709730",
    "lon": "10.65794714198483106316"
  },
  {
    "taxid":"458791",
    "sci_name":"Halorubrum sp. TP226",
    "common_name":"",
    "rank":"species",
    "zoom":"20",
    "nbdesc":"1",
    "all":"Halorubrum sp. TP226 |  | species | 458791",
    "coordinates": [-4.69037777840309644262,10.65659979928325107323],
    "lat": "-4.69037777840309644262",
    "lon": "10.65659979928325107323"
  },
  {
    "taxid":"458792",
    "sci_name":"Halorubrum sp. TP229",
    "common_name":"",
    "rank":"species",
    "zoom":"20",
    "nbdesc":"1",
    "all":"Halorubrum sp. TP229 |  | species | 458792",
    "coordinates": [-4.69107320713691766656,10.65525516702358643784],
    "lat": "-4.69107320713691766656",
    "lon": "10.65525516702358643784"
  },
  {
    "taxid":"458793",
    "sci_name":"Halorubrum sp. TP230",
    "common_name":"",
    "rank":"species",
    "zoom":"20",
    "nbdesc":"1",
    "all":"Halorubrum sp. TP230 |  | species | 458793",
    "coordinates": [-4.69177389116629495192,10.65391326578708230954],
    "lat": "-4.69177389116629495192",
    "lon": "10.65391326578708230954"
  },
  {
    "taxid":"458794",
    "sci_name":"Halorubrum sp. TP231",
    "common_name":"",
    "rank":"species",
    "zoom":"20",
    "nbdesc":"1",
    "all":"Halorubrum sp. TP231 |  | species | 458794",
    "coordinates": [-4.69247981976639838564,10.65257411611318083544],
    "lat": "-4.69247981976639838564",
    "lon": "10.65257411611318083544"
  },
  {
    "taxid":"458795",
    "sci_name":"Halorubrum sp. TP233",
    "common_name":"",
    "rank":"species",
    "zoom":"20",
    "nbdesc":"1",
    "all":"Halorubrum sp. TP233 |  | species | 458795",
    "coordinates": [-4.69319098213212626547,10.65123773849920851831],
    "lat": "-4.69319098213212626547",
    "lon": "10.65123773849920851831"
  },
  {
    "taxid":"458796",
    "sci_name":"Halorubrum sp. TP235",
    "common_name":"",
    "rank":"species",
    "zoom":"20",
    "nbdesc":"1",
    "all":"Halorubrum sp. TP235 |  | species | 458796",
    "coordinates": [-4.69390736737826852476,10.64990415340006180145],
    "lat": "-4.69390736737826852476",
    "lon": "10.64990415340006180145"
  },
  {
    "taxid":"458797",
    "sci_name":"Halorubrum sp. TP240",
    "common_name":"",
    "rank":"species",
    "zoom":"20",
    "nbdesc":"1",
    "all":"Halorubrum sp. TP240 |  | species | 458797",
    "coordinates": [-4.69462896453966926913,10.64857338122789620627],
    "lat": "-4.69462896453966926913",
    "lon": "10.64857338122789620627"
  },
  {
    "taxid":"458798",
    "sci_name":"Halorubrum sp. TP244",
    "common_name":"",
    "rank":"species",
    "zoom":"20",
    "nbdesc":"1",
    "all":"Halorubrum sp. TP244 |  | species | 458798",
    "coordinates": [-4.69535576257140085943,10.64724544235180836438],
    "lat": "-4.69535576257140085943",
    "lon": "10.64724544235180836438"
  },
  {
    "taxid":"458799",
    "sci_name":"Halorubrum sp. TP245",
    "common_name":"",
    "rank":"species",
    "zoom":"20",
    "nbdesc":"1",
    "all":"Halorubrum sp. TP245 |  | species | 458799",
    "coordinates": [-4.69608775034892911293,10.64592035709753048422],
    "lat": "-4.69608775034892911293",
    "lon": "10.64592035709753048422"
  },
  {
    "taxid":"458800",
    "sci_name":"Halorubrum sp. TP246",
    "common_name":"",
    "rank":"species",
    "zoom":"20",
    "nbdesc":"1",
    "all":"Halorubrum sp. TP246 |  | species | 458800",
    "coordinates": [-4.69682491666828383359,10.64459814574711593593],
    "lat": "-4.69682491666828383359",
    "lon": "10.64459814574711593593"
  },
  {
    "taxid":"458801",
    "sci_name":"Halorubrum sp. TP247",
    "common_name":"",
    "rank":"species",
    "zoom":"20",
    "nbdesc":"1",
    "all":"Halorubrum sp. TP247 |  | species | 458801",
    "coordinates": [-4.69756725024623111864,10.64327882853863016521],
    "lat": "-4.69756725024623111864",
    "lon": "10.64327882853863016521"
  },
  {
    "taxid":"458802",
    "sci_name":"Halorubrum sp. TP249",
    "common_name":"",
    "rank":"species",
    "zoom":"20",
    "nbdesc":"1",
    "all":"Halorubrum sp. TP249 |  | species | 458802",
    "coordinates": [-4.69831473972044566523,10.64196242566583983091],
    "lat": "-4.69831473972044566523",
    "lon": "10.64196242566583983091"
  },
  {
    "taxid":"458803",
    "sci_name":"Halorubrum sp. TP250",
    "common_name":"",
    "rank":"species",
    "zoom":"20",
    "nbdesc":"1",
    "all":"Halorubrum sp. TP250 |  | species | 458803",
    "coordinates": [-4.69906737364968662973,10.64064895727790194258],
    "lat": "-4.69906737364968662973",
    "lon": "10.64064895727790194258"
  },
  {
    "taxid":"458804",
    "sci_name":"Halorubrum sp. TP260",
    "common_name":"",
    "rank":"species",
    "zoom":"20",
    "nbdesc":"1",
    "all":"Halorubrum sp. TP260 |  | species | 458804",
    "coordinates": [-4.69982514051396815802,10.63933844347906187977],
    "lat": "-4.69982514051396815802",
    "lon": "10.63933844347906187977"
  },
  {
    "taxid":"458805",
    "sci_name":"Halorubrum sp. TP261",
    "common_name":"",
    "rank":"species",
    "zoom":"20",
    "nbdesc":"1",
    "all":"Halorubrum sp. TP261 |  | species | 458805",
    "coordinates": [-4.70058802871474057383,10.63803090432833720058],
    "lat": "-4.70058802871474057383",
    "lon": "10.63803090432833720058"
  },
  {
    "taxid":"458806",
    "sci_name":"Halorubrum sp. TP263",
    "common_name":"",
    "rank":"species",
    "zoom":"20",
    "nbdesc":"1",
    "all":"Halorubrum sp. TP263 |  | species | 458806",
    "coordinates": [-4.70135602657506446178,10.63672635983921743730],
    "lat": "-4.70135602657506446178",
    "lon": "10.63672635983921743730"
  },
  {
    "taxid":"458807",
    "sci_name":"Halorubrum sp. TP265",
    "common_name":"",
    "rank":"species",
    "zoom":"20",
    "nbdesc":"1",
    "all":"Halorubrum sp. TP265 |  | species | 458807",
    "coordinates": [-4.70212912233979274390,10.63542482997935501032],
    "lat": "-4.70212912233979274390",
    "lon": "10.63542482997935501032"
  },
  {
    "taxid":"458808",
    "sci_name":"Halorubrum sp. TP267",
    "common_name":"",
    "rank":"species",
    "zoom":"20",
    "nbdesc":"1",
    "all":"Halorubrum sp. TP267 |  | species | 458808",
    "coordinates": [-4.70290730417574653899,10.63412633467025969480],
    "lat": "-4.70290730417574653899",
    "lon": "10.63412633467025969480"
  },
  {
    "taxid":"458809",
    "sci_name":"Halorubrum sp. TP269",
    "common_name":"",
    "rank":"species",
    "zoom":"20",
    "nbdesc":"1",
    "all":"Halorubrum sp. TP269 |  | species | 458809",
    "coordinates": [-4.70369056017189990371,10.63283089378698953453],
    "lat": "-4.70369056017189990371",
    "lon": "10.63283089378698953453"
  },
  {
    "taxid":"458810",
    "sci_name":"Halorubrum sp. TP271",
    "common_name":"",
    "rank":"species",
    "zoom":"20",
    "nbdesc":"1",
    "all":"Halorubrum sp. TP271 |  | species | 458810",
    "coordinates": [-4.70447887833956013282,10.63153852715785951943],
    "lat": "-4.70447887833956013282",
    "lon": "10.63153852715785951943"
  },
  {
    "taxid":"458811",
    "sci_name":"Halorubrum sp. TP272",
    "common_name":"",
    "rank":"species",
    "zoom":"20",
    "nbdesc":"1",
    "all":"Halorubrum sp. TP272 |  | species | 458811",
    "coordinates": [-4.70527224661255072391,10.63024925456412006497],
    "lat": "-4.70527224661255072391",
    "lon": "10.63024925456412006497"
  },
  {
    "taxid":"458812",
    "sci_name":"Halorubrum sp. TP273",
    "common_name":"",
    "rank":"species",
    "zoom":"20",
    "nbdesc":"1",
    "all":"Halorubrum sp. TP273 |  | species | 458812",
    "coordinates": [-4.70607065284739967126,10.62896309573967101869],
    "lat": "-4.70607065284739967126",
    "lon": "10.62896309573967101869"
  },
  {
    "taxid":"458765",
    "sci_name":"Halorubrum sp. TP168",
    "common_name":"",
    "rank":"species",
    "zoom":"20",
    "nbdesc":"1",
    "all":"Halorubrum sp. TP168 |  | species | 458765",
    "coordinates": [-4.70687408482352065420,10.62768007037074724508],
    "lat": "-4.70687408482352065420",
    "lon": "10.62768007037074724508"
  },
  {
    "taxid":"458766",
    "sci_name":"Halorubrum sp. TP169",
    "common_name":"",
    "rank":"species",
    "zoom":"20",
    "nbdesc":"1",
    "all":"Halorubrum sp. TP169 |  | species | 458766",
    "coordinates": [-4.70768253024340221913,10.62640019809562552666],
    "lat": "-4.70768253024340221913",
    "lon": "10.62640019809562552666"
  },
  {
    "taxid":"458767",
    "sci_name":"Halorubrum sp. TP172",
    "common_name":"",
    "rank":"species",
    "zoom":"20",
    "nbdesc":"1",
    "all":"Halorubrum sp. TP172 |  | species | 458767",
    "coordinates": [-4.70849597673279784971,10.62512349850431725429],
    "lat": "-4.70849597673279784971",
    "lon": "10.62512349850431725429"
  },
  {
    "taxid":"655460",
    "sci_name":"Halorubrum sp. Ez5RB",
    "common_name":"",
    "rank":"species",
    "zoom":"20",
    "nbdesc":"1",
    "all":"Halorubrum sp. Ez5RB |  | species | 655460",
    "coordinates": [-4.70931441184091070795,10.62384999113827532824],
    "lat": "-4.70931441184091070795",
    "lon": "10.62384999113827532824"
  },
  {
    "taxid":"458770",
    "sci_name":"Halorubrum sp. TP177",
    "common_name":"",
    "rank":"species",
    "zoom":"20",
    "nbdesc":"1",
    "all":"Halorubrum sp. TP177 |  | species | 458770",
    "coordinates": [-4.71013782304059080985,10.62257969549009040122],
    "lat": "-4.71013782304059080985",
    "lon": "10.62257969549009040122"
  },
  {
    "taxid":"458771",
    "sci_name":"Halorubrum sp. TP178",
    "common_name":"",
    "rank":"species",
    "zoom":"20",
    "nbdesc":"1",
    "all":"Halorubrum sp. TP178 |  | species | 458771",
    "coordinates": [-4.71096619772851887831,10.62131263100319422676],
    "lat": "-4.71096619772851887831",
    "lon": "10.62131263100319422676"
  },
  {
    "taxid":"458772",
    "sci_name":"Halorubrum sp. TP179",
    "common_name":"",
    "rank":"species",
    "zoom":"20",
    "nbdesc":"1",
    "all":"Halorubrum sp. TP179 |  | species | 458772",
    "coordinates": [-4.71179952322540618326,10.62004881707156123127],
    "lat": "-4.71179952322540618326",
    "lon": "10.62004881707156123127"
  },
  {
    "taxid":"458773",
    "sci_name":"Halorubrum sp. TP181",
    "common_name":"",
    "rank":"species",
    "zoom":"20",
    "nbdesc":"1",
    "all":"Halorubrum sp. TP181 |  | species | 458773",
    "coordinates": [-4.71263778677618550006,10.61878827303941008608],
    "lat": "-4.71263778677618550006",
    "lon": "10.61878827303941008608"
  },
  {
    "taxid":"458774",
    "sci_name":"Halorubrum sp. TP182",
    "common_name":"",
    "rank":"species",
    "zoom":"20",
    "nbdesc":"1",
    "all":"Halorubrum sp. TP182 |  | species | 458774",
    "coordinates": [-4.71348097555020473237,10.61753101820091416130],
    "lat": "-4.71348097555020473237",
    "lon": "10.61753101820091416130"
  },
  {
    "taxid":"458775",
    "sci_name":"Halorubrum sp. TP183",
    "common_name":"",
    "rank":"species",
    "zoom":"20",
    "nbdesc":"1",
    "all":"Halorubrum sp. TP183 |  | species | 458775",
    "coordinates": [-4.71432907664142764048,10.61627707179989776876],
    "lat": "-4.71432907664142764048",
    "lon": "10.61627707179989776876"
  },
  {
    "taxid":"458776",
    "sci_name":"Halorubrum sp. TP188",
    "common_name":"",
    "rank":"species",
    "zoom":"20",
    "nbdesc":"1",
    "all":"Halorubrum sp. TP188 |  | species | 458776",
    "coordinates": [-4.71518207706862746420,10.61502645302954839224],
    "lat": "-4.71518207706862746420",
    "lon": "10.61502645302954839224"
  },
  {
    "taxid":"458777",
    "sci_name":"Halorubrum sp. TP197",
    "common_name":"",
    "rank":"species",
    "zoom":"20",
    "nbdesc":"1",
    "all":"Halorubrum sp. TP197 |  | species | 458777",
    "coordinates": [-4.71603996377558853936,10.61377918103211648315],
    "lat": "-4.71603996377558853936",
    "lon": "10.61377918103211648315"
  },
  {
    "taxid":"458778",
    "sci_name":"Halorubrum sp. TP201",
    "common_name":"",
    "rank":"species",
    "zoom":"20",
    "nbdesc":"1",
    "all":"Halorubrum sp. TP201 |  | species | 458778",
    "coordinates": [-4.71690272363130169708,10.61253527489863124345],
    "lat": "-4.71690272363130169708",
    "lon": "10.61253527489863124345"
  },